,Registration_date,Longitude,Latitude,Annual_underground_extraction_m3,Entitlement,Permited_use,Municipality_name,Year
0,2019-06-27,-99.15500536111112,19.30394711111111,450000.0,"TELEVISA, S.A. DE C.V.",SERVICIOS,COYOACÁN,2019
1,2022-12-12,-99.252504,19.380005055555557,765000.0,"CAPRICHO HABITACIONAL, S.A. DE C.V.",SERVICIOS,ÁLVARO OBREGÓN,2022
2,2022-12-12,-99.25278177777778,19.380007583333335,765000.0,"CAPRICHO HABITACIONAL, S.A. DE C.V.",SERVICIOS,ÁLVARO OBREGÓN,2022
3,2021-09-09,-99.19645011111112,19.45144847222222,270720.0,FIM-TIERRA UNO,SERVICIOS,MIGUEL HIDALGO,2021
4,2019-12-20,-99.15749930555556,19.430286000000002,14701.0,LERMA SA,SERVICIOS,CUAUHTÉMOC,2019
5,2022-10-07,-99.15787566666667,19.456487055555556,1128200.0,EMBOTELLADORA MEXICANA DE BEBIDAS REFRESCANTES,INDUSTRIAL,CUAUHTÉMOC,2022
6,2020-10-28,-99.19247186111112,19.491445777777777,91000.0,INMOBILIARIA BIMBO AZCAPOTZALCO,DIFERENTES USOS,AZCAPOTZALCO,2020
7,2021-08-02,-99.15194425,19.535280694444445,100000.0,LA IGLESIA DE JESUCRISTO DE LOS SANTOS DE LOS ULTIMOS DIAS EN MEXICO,SERVICIOS,GUSTAVO A. MADERO,2021
8,2021-09-21,-99.21027811111111,19.330278166666666,23000.0,"INMOBILIARIA GOCOS, S.A. DE C.V.",SERVICIOS,ÁLVARO OBREGÓN,2021
9,2021-09-21,-99.21083361111111,19.32638925,23000.0,"INMOBILIARIA GOCOS, S.A. DE C.V.",SERVICIOS,ÁLVARO OBREGÓN,2021
10,2021-05-25,-99.16308366666667,19.493974666666666,7483.0,NACIONAL DE COBRE S.A. DE C.V.,INDUSTRIAL,AZCAPOTZALCO,2021
11,2021-05-25,-99.16180572222223,19.49294752777778,7483.0,NACIONAL DE COBRE S.A. DE C.V.,INDUSTRIAL,AZCAPOTZALCO,2021
12,2021-06-04,-99.21194425,19.45778052777778,19814.0,"COMPAÑIA LANERA DE MEXICO, S.A. DE C.V.",INDUSTRIAL,MIGUEL HIDALGO,2021
13,2022-06-08,-99.12333333333332,19.388891972222222,510000.0,"EMBOTELLADORA METROPOLITANA, S. DE R.L. DE C.V.",INDUSTRIAL,IZTACALCO,2022
14,2021-09-21,-99.10527813888888,19.366667083333333,20000.0,"INMOBILIARIA RONCESVALLES, S.A. DE C.V.",INDUSTRIAL,IZTAPALAPA,2021
15,2021-10-22,-99.20250016666667,19.445000444444446,360000.0,"FIM-TIERRA UNO, S. DE R.L. DE C.V.",SERVICIOS,MIGUEL HIDALGO,2021
16,2022-10-21,-99.15572222222222,19.456308472222222,4555.0,"CIA HARINERA DE MEXICO, S.A. DE C.V.",INDUSTRIAL,CUAUHTÉMOC,2022
17,2022-07-19,-99.16416702777778,19.491667083333333,332400.0,"ENVASADORAS DE AGUAS EN MEXICO, S. DE R.L. DE C.V.",INDUSTRIAL,AZCAPOTZALCO,2022
18,2022-06-03,-99.16333350000001,19.495280611111113,46018.0,"INDUSTRIAS LACTEAS DE VALLEJO, S. DE R.L. DE C.V.",INDUSTRIAL,AZCAPOTZALCO,2022
19,2023-07-19,-99.20527811111111,19.43889163888889,30000.0,"CIBANCO, S.A. I.B.M COMO FIDUCIARIO DEL FIDEICOMISO CIB/2191",SERVICIOS,MIGUEL HIDALGO,2023
20,2022-08-05,-99.12361144444444,19.388058166666667,511392.0,"BEBIDAS PURIFICADAS, S. DE R.L. DE C.V.",INDUSTRIAL,IZTACALCO,2022
21,2022-07-19,-99.17583383333334,19.505000194444445,70000.0,"ODIPARK 990, S.A.",INDUSTRIAL,AZCAPOTZALCO,2022
22,1998-11-04,-99.10416397222221,19.46918183333333,22000.0,"MONDELEZ MEXICO, S. DE R.L. DE C.V.",INDUSTRIAL,GUSTAVO A. MADERO,1998
23,1994-11-29,-99.15083375,19.53583616666667,130000.0,LA IGLESIA DE JESUCRISTO DE LOS SANTOS DE LOS ULTIMOS DIAS EN MEXICO,SERVICIOS,GUSTAVO A. MADERO,1994
24,1995-05-30,-99.18016727777778,19.42811675,6978.0,"CENTRO DEPORTIVO CHAPULTEPEC, A.C.",SERVICIOS,MIGUEL HIDALGO,1995
25,1995-04-11,-99.17361144444445,19.458336083333332,149073.0,"COBRE DE MEXICO, S.A. DE C.V.",INDUSTRIAL,MIGUEL HIDALGO,1995
26,1995-03-29,-99.15305577777778,19.461667138888888,52024.0,"NUEVA ESCUELA JUSTO SIERRA, A.C.",SERVICIOS,CUAUHTÉMOC,1995
27,1995-07-25,-99.10277794444444,19.47555483333333,17187.0,"INDUSTRIAS UNIDAS, S.A. DE C.V.",INDUSTRIAL,GUSTAVO A. MADERO,1995
28,1995-07-17,-99.15633416666667,19.465532944444444,125000.0,"COMPAÑIA PAPELERA EL FENIX, S.A. DE C.V.",INDUSTRIAL,AZCAPOTZALCO,1995
29,1995-07-17,-99.1501121388889,19.45003638888889,125000.0,"COMPAÑIA PAPELERA EL FENIX, S.A. DE C.V.",INDUSTRIAL,CUAUHTÉMOC,1995
30,1996-07-04,-99.181667,19.35750163888889,114559.0,"CIRCULO FRANCES DE MEXICO, A.C.",SERVICIOS,ÁLVARO OBREGÓN,1996
31,1996-02-27,-99.18636127777778,19.507864194444444,105120.0,PANIFICACION BIMBO,INDUSTRIAL,AZCAPOTZALCO,1996
32,1996-02-19,-99.08722272222222,19.324169416666667,103680.0,"INMOBILIARIA EZCO, S.A.",INDUSTRIAL,IZTAPALAPA,1996
33,1996-07-04,-99.15805555555556,19.48416975,110498.0,"GRUPO GAMESA, S. DE R.L. DE C.V.",INDUSTRIAL,AZCAPOTZALCO,1996
34,1996-05-06,-99.21416694444444,19.440279944444445,118510.0,"PARQUE ARTURO MUNDET, A. C.",INDUSTRIAL,MIGUEL HIDALGO,1996
35,1996-10-02,-99.17761122222223,19.45944763888889,305694.0,"INDUSTRIA DE REFRESCOS, S. DE R.L. DE C.V.",INDUSTRIAL,AZCAPOTZALCO,1996
36,1996-10-02,-99.1769448888889,19.45889161111111,305694.0,"INDUSTRIA DE REFRESCOS, S. DE R.L. DE C.V.",INDUSTRIAL,AZCAPOTZALCO,1996
37,1996-05-16,-99.16944477777778,19.502780694444443,1165880.0,"PROCTER & GAMBLE MANUFACTURING MEXICO, S. DE R.L. DE C.V.",INDUSTRIAL,AZCAPOTZALCO,1996
38,1996-05-16,-99.16972219444445,19.502781,1165880.0,"PROCTER & GAMBLE MANUFACTURING MEXICO, S. DE R.L. DE C.V.",INDUSTRIAL,AZCAPOTZALCO,1996
39,1996-05-16,-99.16888905555557,19.50416975,1165880.0,"PROCTER & GAMBLE MANUFACTURING MEXICO, S. DE R.L. DE C.V.",INDUSTRIAL,AZCAPOTZALCO,1996
40,1996-09-19,-99.13861144444445,19.45583625,7000.0,LA SUIZA SA DE CV,INDUSTRIAL,CUAUHTÉMOC,1996
41,1996-05-17,-99.14444455555557,19.42055852777778,29864.0,"SERVICIO PAN AMERICANO DE PROTECCION, S.A. DE C.V.",SERVICIOS,CUAUHTÉMOC,1996
42,1996-08-14,-99.1422223888889,19.28777902777778,59262.0,INSTITUTO TECNOLOGICO Y DE ESTUDIOS SUPERIORES DE MONTERREY,SERVICIOS,TLALPAN,1996
43,1996-08-14,-99.13500016666667,19.283058722222222,59262.0,INSTITUTO TECNOLOGICO Y DE ESTUDIOS SUPERIORES DE MONTERREY,SERVICIOS,TLALPAN,1996
44,1997-03-12,-99.15202827777779,19.494197361111112,68.0,"INMOBILIARIA FAUSTO SUAREZ, S.A. DE C.V.",INDUSTRIAL,GUSTAVO A. MADERO,1997
45,1999-06-28,-99.18305555555555,19.443891055555557,20000.0,"FANTASIAS MIGUEL, S.A. DE C.V.",INDUSTRIAL,MIGUEL HIDALGO,1999
46,2002-05-10,-99.16083361111112,19.483614,290000.0,"INDUSTRIA DE REFRESCOS, S. DE R.L. DE C.V.",INDUSTRIAL,AZCAPOTZALCO,2002
47,2004-04-02,-99.10238927777777,19.478058333333333,90000.0,"FABRICA DE HIELO LA SIBERIA, S.A. DE C.V.",INDUSTRIAL,GUSTAVO A. MADERO,2004
48,2004-04-02,-99.17444497222223,19.460554972222223,130000.0,"FABRICA DE HIELO LA MODERNA, S. A. DE C .V.",INDUSTRIAL,AZCAPOTZALCO,2004
49,2004-07-23,-99.16194425,19.498892027777778,100000.0,EXTRACTOS Y MALTAS SA DE CV,INDUSTRIAL,AZCAPOTZALCO,2004
50,2008-02-26,-99.16444480555556,19.49527813888889,50000.0,"WYETH, S. DE R.L. DE C.V.",INDUSTRIAL,AZCAPOTZALCO,2008
51,2008-07-28,-99.12250033333332,19.38750322222222,206759.0,"BEBIDAS PURIFICADAS, S. DE R.L. DE C.V.",INDUSTRIAL,IZTACALCO,2008
52,2013-04-30,-99.21744477777779,19.33764175,18000.0,"MEXOPORO, S.C.",INDUSTRIAL,ÁLVARO OBREGÓN,2013
53,1995-07-07,-99.18008383333334,19.50669702777778,1535968.0,"EMPAQUES MODERNOS SAN PABLO, S. DE R.L. DE C.V.",INDUSTRIAL,AZCAPOTZALCO,1995
54,1999-12-27,-99.18138888888889,19.490000000000002,21000.0,ANTONIO NOVOA GARCIA,INDUSTRIAL,AZCAPOTZALCO,1999
55,2013-04-30,-99.158004,19.49453788888889,10400.0,"CIA. SHERWIN WILLIAMS, S.A. DE C,V.",INDUSTRIAL,AZCAPOTZALCO,2013
56,1996-11-21,-99.15944444444445,19.458055555555553,1112.0,"MOLINO DE TRIGO LA ESPERANZA, S. A.",INDUSTRIAL,IZTACALCO,1996
57,1999-09-13,-99.18333333333334,19.335555555555555,8432.0,AUTOFINANCIAMIENTO MÉXICO S.A. DE C.V.,SERVICIOS,BENITO JUÁREZ,1999
58,1997-06-03,-99.10249999999999,19.433888888888887,151200.0,"PRODUCTOS PUENTE, S.A. DE C.V.",INDUSTRIAL,CUAUHTÉMOC,1997
59,1997-06-03,-99.10277777777777,19.433611111111112,151200.0,"PRODUCTOS PUENTE, S.A. DE C.V.",INDUSTRIAL,CUAUHTÉMOC,1997
60,1995-11-28,-99.15583333333333,19.498611111111114,108273.0,"TEXTIL LANERA, S.A. DE C.V.",INDUSTRIAL,AZCAPOTZALCO,1995
61,1995-11-28,-99.15583333333333,19.498333333333335,108273.0,"TEXTIL LANERA, S.A. DE C.V.",INDUSTRIAL,AZCAPOTZALCO,1995
62,1995-08-15,-99.18583333333333,19.442222222222224,22457.0,"PIRAMIDE, S.A. DE C.V.",INDUSTRIAL,TLÁHUAC,1995
63,1997-06-03,-99.16083333333334,19.49416666666667,240.0,"PISOS ALFER, S.A. DE C.V. /GUILLERMO FERNANDEZ DE LA PARRA",INDUSTRIAL,AZCAPOTZALCO,1997
64,1996-11-21,-99.12555555555555,19.41611111111111,64800.0,"FABRICA NACIONAL DE MALTA, S. A. DE C. V.",INDUSTRIAL,CUAUHTÉMOC,1996
65,1996-11-21,-99.12555555555555,19.41611111111111,64800.0,"FABRICA NACIONAL DE MALTA, S. A. DE C. V.",INDUSTRIAL,CUAUHTÉMOC,1996
66,1998-01-20,-99.15694444444445,19.471944444444443,1100.0,"ADMINISTRADORA DE INMUEBLES HOTAN, S. A.",INDUSTRIAL,AZCAPOTZALCO,1998
67,1996-11-21,-99.21111111111111,19.459444444444443,26730.0,ANA MARIA SOTRES DE DEL VALLE,INDUSTRIAL,TLÁHUAC,1996
68,1999-01-13,-98.88666666666667,19.506666666666668,571.0,"HERMUN, S. C.",INDUSTRIAL,CUAUHTÉMOC,1999
69,1994-12-22,-99.14111111111112,19.31388888888889,486880.0,"PROPIMEX, S. A. DE C. V.",INDUSTRIAL,COYOACÁN,1994
70,1994-12-22,-99.14111111111112,19.31361111111111,486880.0,"PROPIMEX, S. A. DE C. V.",INDUSTRIAL,COYOACÁN,1994
71,1999-08-30,-99.13333333333334,19.416666666666668,15000.0,"INMUEBLES CANTABRIA, S. A. DE C. V.",INDUSTRIAL,CUAUHTÉMOC,1999
72,1994-12-22,-99.15944444444445,19.36138888888889,110000.0,"PROPIMEX, S.A. DE C.V.",INDUSTRIAL,BENITO JUÁREZ,1994
73,1995-04-07,-99.10805555555555,19.398888888888887,50000.0,"TENERIA MERCURIO, S.A. DE C.V.",INDUSTRIAL,IZTACALCO,1995
74,1997-10-21,-99.15111111111112,19.4475,8295.0,FERROCARRILES NACIONALES DE MEXICO,SERVICIOS,IZTACALCO,1997
75,1994-05-23,-99.13861111111112,19.41444444444444,4060.0,"SUPER BAÑOS CALETA, S.A. DE C.V.",INDUSTRIAL,IZTACALCO,1994
76,1994-11-11,-99.16000000000001,19.45611111111111,817255.0,"PROPIMEX, S.A. DE C.V.",INDUSTRIAL,CUAUHTÉMOC,1994
77,1994-11-11,-99.15972222222223,19.45583333333333,817255.0,"PROPIMEX, S.A. DE C.V.",INDUSTRIAL,CUAUHTÉMOC,1994
78,1995-09-07,-99.15333333333334,19.487222222222222,1687356.0,"INMOBILIARIA SAN ANTOLIN, S.A. DE C.V.",INDUSTRIAL,AZCAPOTZALCO,1995
79,1995-09-07,-99.1525,19.4875,1687356.0,"INMOBILIARIA SAN ANTOLIN, S.A. DE C.V.",INDUSTRIAL,AZCAPOTZALCO,1995
80,1996-11-05,-99.15972222222223,19.454722222222223,4495.0,"PROPIMEX, S. A. DE C. V.",INDUSTRIAL,IZTACALCO,1996
81,1996-08-07,-99.22055555555556,19.325555555555557,290.0,DR. GUSTAVO BAZ DIAZ LOMBARDO,DOMÉSTICO,ÁLVARO OBREGÓN,1996
82,2001-11-13,-99.19666666666667,19.477777777777778,38000.0,"COMPAÑÍA HULERA TORNEL, S.A. DE C.V.",INDUSTRIAL,AZCAPOTZALCO,2001
83,1995-04-18,-99.15222222222222,19.418472222222224,95562.0,"CERVECERÍA MODELO, S.A. DE C.V.",INDUSTRIAL,CUAUHTÉMOC,1995
84,1995-07-12,-99.20158333333333,19.345416666666665,1700.0,"FUNDACIÓN DE AYUDA A LA ANCIANIDAD, INSTITUCIÓN DE ASISTENCIA PRIVADA",DOMÉSTICO,ÁLVARO OBREGÓN,1995
85,1996-11-02,-99.17361111111111,19.43777777777778,21600.0,"INMOBILIARIA MOTKE, S. A. DE C. V.",INDUSTRIAL,TLÁHUAC,1996
86,1995-11-06,-99.20397222222222,19.44436111111111,468340.0,"VIDRIERA MÉXICO, S.A. DE C.V.",INDUSTRIAL,MIGUEL HIDALGO,1995
87,1995-11-06,-99.20461111111112,19.4445,468340.0,"VIDRIERA MÉXICO, S.A. DE C.V.",INDUSTRIAL,MIGUEL HIDALGO,1995
88,1996-05-06,-99.21300000000001,19.461111111111112,42052.0,"HERDEZ, S.A. DE C.V.",INDUSTRIAL,MIGUEL HIDALGO,1996
89,1995-08-27,-99.08436111111111,19.32413888888889,315360.0,"FERMIC, S.A. DE C.V.",INDUSTRIAL,IZTAPALAPA,1995
90,1996-08-14,-99.19500000000001,19.475277777777777,38669.0,"GENERAL DE INMUEBLES INDUSTRIALES, S.A. DE C.V.",INDUSTRIAL,AZCAPOTZALCO,1996
91,1995-09-07,-99.14,19.456666666666667,7520.0,"HARINERA NACIONAL, S.A. DE C.V.",INDUSTRIAL,CUAUHTÉMOC,1995
92,1995-09-07,-99.13972222222223,19.456944444444442,7520.0,"HARINERA NACIONAL, S.A. DE C.V.",INDUSTRIAL,CUAUHTÉMOC,1995
93,1996-08-07,-99.19694444444445,19.35527777777778,1002.0,TEODORO AMERLINCK Y ZIRION,INDUSTRIAL,ÁLVARO OBREGÓN,1996
94,1996-05-17,-99.29388888888889,19.32638888888889,75.0,MARÍA DELFINA RAMÍREZ CRUZ,AGRÍCOLA,ÁLVARO OBREGÓN,1996
95,1996-05-16,-99.14227777777778,19.35638888888889,25000.0,"ESTUDIOS CHURUBUSCO AZTECA, S.A.",SERVICIOS,COYOACÁN,1996
96,1994-11-24,-99.24166666666667,19.38611111111111,13530.0,"SYNTEX, S.A. DE C.V.",INDUSTRIAL,TLÁHUAC,1994
97,1995-04-19,-99.19833333333334,19.45722222222222,455008.0,"MICHELIN MEXICO SERVICES, S.A. DE C.V.",INDUSTRIAL,TLÁHUAC,1995
98,1995-04-19,-99.19916666666667,19.4575,455008.0,"MICHELIN MEXICO SERVICES, S.A. DE C.V.",INDUSTRIAL,TLÁHUAC,1995
99,1995-09-07,-99.11999999999999,19.451944444444443,16200.0,"EMPAQUES DE CARTON UNITED, S.A. DE C.V.",INDUSTRIAL,CUAUHTÉMOC,1995
100,1996-11-27,-99.12252777777778,19.462916666666665,6523.0,"DEACERO, S.A. DE C.V.",INDUSTRIAL,GUSTAVO A. MADERO,1996
101,2003-02-04,-99.08433333333333,19.356250000000003,50000.0,"MALLINCKRODT MEDICAL, S. A. DE C.V.",INDUSTRIAL,IZTAPALAPA,2003
102,1997-09-10,-99.19416666666667,19.478888888888886,216415.0,"ELECTROPURA, S. DE R.L. DE C.V.",INDUSTRIAL,AZCAPOTZALCO,1997
103,1997-09-10,-99.19444444444444,19.479166666666664,216415.0,"ELECTROPURA, S. DE R.L. DE C.V.",INDUSTRIAL,AZCAPOTZALCO,1997
104,2007-08-14,-99.11963888888889,19.451583333333332,17000.0,"EMPAQUES DE CARTON UNITED, S. A DE C.V.",INDUSTRIAL,VENUSTIANO CARRANZA,2007
105,1996-05-17,-99.15361111111112,19.497222222222224,250.0,"MOLINO HERCULES, S.A.",INDUSTRIAL,GUSTAVO A. MADERO,1996
106,1995-07-27,-99.13944444444445,19.421111111111113,15012.0,"TIENDAS AURRERÁ, S. DE R.L. DE C.V.",INDUSTRIAL,CUAUHTÉMOC,1995
107,1996-10-02,-99.2125,19.45777777777778,130291.0,"TIZAYUCA TEXTIL VUVA, S.A. DE C.V.",INDUSTRIAL,MIGUEL HIDALGO,1996
108,1997-07-01,-99.21175000000001,19.451472222222222,4444.0,"ASOCIACION FRANCO MEXICANA SUIZA Y BELGA DE BENEFICENCIA, I. A. P./NUEVO PANTEON FRANCES",SERVICIOS,MIGUEL HIDALGO,1997
109,1994-11-22,-99.17200000000001,19.439944444444446,163248.0,"LAVANDERÍA LA EUROPEA, S.A. DE C.V.",INDUSTRIAL,MIGUEL HIDALGO,1994
110,1994-11-22,-99.17266666666667,19.439555555555557,163248.0,"LAVANDERÍA LA EUROPEA, S.A. DE C.V.",INDUSTRIAL,MIGUEL HIDALGO,1994
111,2004-06-22,-99.15861111111111,19.47972222222222,187000.0,"CERVEZAS CUAUHTÉMOC MOCTEZUMA, S. A. DE C. V.",INDUSTRIAL,AZCAPOTZALCO,2004
112,2004-06-22,-99.15916666666668,19.480833333333333,187000.0,"CERVEZAS CUAUHTÉMOC MOCTEZUMA, S. A. DE C. V.",INDUSTRIAL,AZCAPOTZALCO,2004
113,1996-05-06,-99.12638888888888,19.26722222222222,320207.0,"ROVILAN, S.A. DE C.V.",INDUSTRIAL,XOCHIMILCO,1996
114,1996-08-14,-99.43916666666667,19.433333333333334,66451.0,"CERVECERIA MODELO, S.A. DE C.V.",INDUSTRIAL,VENUSTIANO CARRANZA,1996
115,1996-08-14,-99.10555555555555,19.433333333333334,66451.0,"CERVECERIA MODELO, S.A. DE C.V.",INDUSTRIAL,VENUSTIANO CARRANZA,1996
116,1994-12-05,-99.16,19.492,241.0,"PHILIPS MEXICANA, S.A. DE C.V.",INDUSTRIAL,AZCAPOTZALCO,1994
117,1995-12-28,-99.1546388888889,19.46077777777778,14800.0,"PINTURAS OPTIMUS, S.A. DE C.V.",INDUSTRIAL,CUAUHTÉMOC,1995
118,1996-07-22,-99.14527777777778,19.438333333333333,6800.0,"MARIA ELENA DOMINGUEZ BRIONES, MARIA TERESA DOMINGUEZ BRIONES, ANA MARIA DOMINGUEZ BRIONES Y ARMANDO ALEJANDRO DOMINGUEZ BRIONES",INDUSTRIAL,CUAUHTÉMOC,1996
119,1996-09-05,-99.1146111111111,19.467388888888888,183.0,"CROWN ENVASES MÉXICO, S.A. DE C.V.",INDUSTRIAL,GUSTAVO A. MADERO,1996
120,1996-09-19,-99.1641388888889,19.424805555555558,22488.0,"HOTEL GENEVE, S.A. DE C.V.",INDUSTRIAL,CUAUHTÉMOC,1996
121,1996-09-19,-99.16405555555556,19.424583333333334,22488.0,"HOTEL GENEVE, S.A. DE C.V.",INDUSTRIAL,CUAUHTÉMOC,1996
122,2001-12-06,-99.17472222222223,19.461111111111112,36288.0,"GARCÍA BÁRCENA Y COMPAÑÍA, S.C.",INDUSTRIAL,AZCAPOTZALCO,2001
123,1995-12-06,-99.19583333333334,19.402777777777775,236520.0,"CENTRO ASTURIANO DE MÉXICO, A.C.",SERVICIOS,COYOACÁN,1995
124,1995-09-07,-99.17527777777778,19.460555555555555,311040.0,"PRAXAIR MÉXICO, S. DE R.L. DE C.V.",INDUSTRIAL,AZCAPOTZALCO,1995
125,1997-07-15,-99.10277777777777,19.47138888888889,2334.0,SECRETARIA DE HACIENDA Y CREDITO PUBLICO,SERVICIOS,GUSTAVO A. MADERO,1997
126,1996-08-14,-99.18027777777779,19.4375,23192.0,"ASOCIACIÓN CRISTIANA DE JOVENES DE LA CIUDAD DE MÉXICO (YMCA), A.C.",SERVICIOS,MIGUEL HIDALGO,1996
127,2009-02-04,-99.11222222222221,19.29888888888889,7978.4,"VITRIUM DIVISION FARMACEUTICA, S.A. DE C.V.",INDUSTRIAL,TLALPAN,2009
128,1996-09-19,-99.14250000000001,19.350833333333334,240.0,FRANCISCO GRANILLO ORDOÑEZ,SERVICIOS,COYOACÁN,1996
129,2008-09-12,-99.11361111111111,19.25111111111111,148760.0,"BOEHRINGER INGELHEIM PROMECO, S.A. DE C.V.",INDUSTRIAL,XOCHIMILCO,2008
130,1996-05-16,-99.14055555555557,19.311111111111114,151180.0,"ABBOTT LABORATORIES DE MÉXICO, S. A. DE C. V.",INDUSTRIAL,COYOACÁN,1996
131,2005-10-14,-99.18583333333333,19.440277777777776,67000.0,"ALTERNATIVA HABITACIONAL METROPOLITANA, S. DE R.L. DE C.V.",INDUSTRIAL,MIGUEL HIDALGO,2005
132,1996-05-17,-99.18805555555556,19.442777777777778,8094038.0,"CERVECERIA MODELO, S.A. DE C.V.",INDUSTRIAL,MIGUEL HIDALGO,1996
133,1996-05-17,-99.18722222222223,19.443333333333335,8094038.0,"CERVECERIA MODELO, S.A. DE C.V.",INDUSTRIAL,MIGUEL HIDALGO,1996
134,1996-05-17,-99.18805555555556,19.44361111111111,8094038.0,"CERVECERIA MODELO, S.A. DE C.V.",INDUSTRIAL,MIGUEL HIDALGO,1996
135,1996-05-17,-99.18972222222223,19.441111111111113,8094038.0,"CERVECERIA MODELO, S.A. DE C.V.",INDUSTRIAL,MIGUEL HIDALGO,1996
136,1996-05-17,-99.18805555555556,19.440277777777776,8094038.0,"CERVECERIA MODELO, S.A. DE C.V.",INDUSTRIAL,MIGUEL HIDALGO,1996
137,1996-05-17,-99.1863888888889,19.44,8094038.0,"CERVECERIA MODELO, S.A. DE C.V.",INDUSTRIAL,MIGUEL HIDALGO,1996
138,1996-05-17,-99.18908333333334,19.44238888888889,8094038.0,"CERVECERIA MODELO, S.A. DE C.V.",INDUSTRIAL,MIGUEL HIDALGO,1996
139,1996-10-14,-99.18336111111111,19.443083333333334,17043.0,"BRIDGESTONE DE MEXICO, S. A. DE C. V.",INDUSTRIAL,MIGUEL HIDALGO,1996
140,1996-07-04,-99.15191666666668,19.45647222222222,19023.0,"CERILLOS Y FOSFOROS LA IMPERIAL, S.A. DE C.V.",INDUSTRIAL,CUAUHTÉMOC,1996
141,1996-07-04,-99.10191666666667,19.456666666666667,19023.0,"CERILLOS Y FOSFOROS LA IMPERIAL, S.A. DE C.V.",INDUSTRIAL,CUAUHTÉMOC,1996
142,1995-07-28,-99.1613888888889,19.499444444444446,218832.0,"EXTRACTOS Y MALTAS, S. A. DE C. V.",INDUSTRIAL,AZCAPOTZALCO,1995
143,1995-07-28,-99.16250000000001,19.500555555555554,218832.0,"EXTRACTOS Y MALTAS, S. A. DE C. V.",INDUSTRIAL,AZCAPOTZALCO,1995
144,1995-07-11,-99.13900000000001,19.424916666666668,10111.0,"BAÑOS BOLIVAR DE MEXICO, S. A. DE C. V.",INDUSTRIAL,CUAUHTÉMOC,1995
145,1995-07-11,-99.13902777777778,19.424944444444446,10111.0,"BAÑOS BOLIVAR DE MEXICO, S. A. DE C. V.",INDUSTRIAL,CUAUHTÉMOC,1995
146,1999-07-26,-99.20833333333334,19.35,1071.0,"PANTEON JARDIN DE MEXICO, S.A.",SERVICIOS,ÁLVARO OBREGÓN,1999
147,1995-03-05,-99.19722222222222,19.425,200000.0,"COMPAÑÍA INDUSTRIAL DE XALOSTOC, S.A. DE C.V.",INDUSTRIAL,MIGUEL HIDALGO,1995
148,1999-08-02,-99.16611111111112,19.503888888888888,24450.0,"PROCTER & GAMBLE MANUFACTURA, S. DE R. L. DE C.V.",INDUSTRIAL,AZCAPOTZALCO,1999
149,2001-11-06,-99.06694444444445,19.150277777777777,78000.0,"BRISTOL MYERS SQUIBB DE MÉXICO, S. DE R. L. DE C. V.",INDUSTRIAL,ÁLVARO OBREGÓN,2001
150,1994-11-11,-99.14127777777779,19.456083333333332,20000.0,"LEVADURA AZTECA, S.A. DE C.V.",INDUSTRIAL,CUAUHTÉMOC,1994
151,1994-11-11,-99.14161111111112,19.455305555555555,20000.0,"LEVADURA AZTECA, S.A. DE C.V.",INDUSTRIAL,CUAUHTÉMOC,1994
152,1999-08-30,-99.09722222222221,19.49277777777778,32510.0,INSTITUTO MEXICANO DEL SEGURO SOCIAL UNIDAD MORELOS,SERVICIOS,GUSTAVO A. MADERO,1999
153,1996-07-04,-99.15202777777779,19.494194444444446,68.0,"FAUSTO SUAREZ, S.A. DE C.V.",INDUSTRIAL,GUSTAVO A. MADERO,1996
154,1999-08-30,-99.16361111111112,19.501944444444444,98761.0,"INDUSTRIAS ROJAS Y ASOCIADOS, S. A. DE C. V.",INDUSTRIAL,AZCAPOTZALCO,1999
155,1997-06-17,-99.12705555555554,19.41483333333333,10812.0,"IAMSE, S.A.",INDUSTRIAL,VENUSTIANO CARRANZA,1997
156,1997-06-17,-99.12702777777777,19.41408333333333,10812.0,"IAMSE, S.A.",INDUSTRIAL,VENUSTIANO CARRANZA,1997
157,1999-11-03,-99.20055555555555,19.439722222222223,3000.0,"BAYER DE MEXICO, S.A. DE C.V.",INDUSTRIAL,MIGUEL HIDALGO,1999
158,1997-07-15,-99.15944444444445,19.408055555555553,65167.0,SECRETARIA DE HACIENDA Y CREDITO PUBLICO,SERVICIOS,CUAUHTÉMOC,1997
159,2011-09-30,-99.15030555555556,19.450666666666667,40000.0,LUZ Y FUERZA DEL CENTRO,GENERACIÓN  DE ENERGÍA ELÉCTRICA,CUAUHTÉMOC,2011
160,2011-10-31,-99.1703888888889,19.437166666666666,33600.0,LUZ Y FUERZA DEL CENTRO,GENERACIÓN  DE ENERGÍA ELÉCTRICA,MIGUEL HIDALGO,2011
161,1996-04-23,-99.13388888888889,19.36777777777778,91208.0,SERVICIO DE TRANSPORTES ELECTRICOS DEL DISTRITO FEDERAL,INDUSTRIAL,IZTAPALAPA,1996
162,1996-05-16,-99.07527777777777,19.331944444444446,39799.0,"INDUSTRIAS J. L. C., S. A. DE C. V.",INDUSTRIAL,MILPA ALTA,1996
163,1996-05-16,-99.20883333333333,19.488055555555558,3700.0,"CIGARROS LA TABACALERA MEXICANA, S.DE R.L. DE C.V.",INDUSTRIAL,AZCAPOTZALCO,1996
164,2012-05-15,-99.19305555555556,19.470277777777778,70064.0,SECRETARIA DE MEDIO AMBIENTE Y RECURSOS NATURALES,INDUSTRIAL,MIGUEL HIDALGO,2012
165,1995-03-09,-99.10583333333332,19.473888888888887,12399.0,"ACEITES Y JABONES, S.A. DE C.V.",INDUSTRIAL,GUSTAVO A. MADERO,1995
166,1995-11-06,-99.20833333333334,19.45,893706.0,COLGATE PALMOLIVE S.A. DE C.V.,INDUSTRIAL,MIGUEL HIDALGO,1995
167,1995-11-06,-99.20833333333334,19.450277777777778,893706.0,COLGATE PALMOLIVE S.A. DE C.V.,INDUSTRIAL,MIGUEL HIDALGO,1995
168,1995-11-06,-99.20861111111111,19.45,893706.0,COLGATE PALMOLIVE S.A. DE C.V.,INDUSTRIAL,MIGUEL HIDALGO,1995
169,2009-04-13,-99.12833333333333,19.309722222222224,400000.0,INSTITUTO MEXICANO DEL SEGURO SOCIAL,SERVICIOS,COYOACÁN,2009
170,2012-03-22,-99.20472222222223,19.442222222222224,287000.0,"INMUEBLES GENERAL, S.A DE C.V.",SERVICIOS,MIGUEL HIDALGO,2012
171,1995-11-15,-99.10833333333333,19.475555555555555,30000.0,"PROCTER & GAMBLE, MANUFACTURA S. DE R.L. DE C.V.",INDUSTRIAL,GUSTAVO A. MADERO,1995
172,2013-04-30,-99.20166666666667,19.440833333333334,40000.0,"BAYER DE MÉXICO, S.A. DE C.V.",INDUSTRIAL,MIGUEL HIDALGO,2013
173,1997-06-14,-99.20138888888889,19.440277777777776,582400.0,"LEVADURA AZTECA, S. A. DE C. V.",INDUSTRIAL,MIGUEL HIDALGO,1997
174,1997-06-14,-99.20111111111112,19.440277777777776,582400.0,"LEVADURA AZTECA, S. A. DE C. V.",INDUSTRIAL,MIGUEL HIDALGO,1997
175,1997-06-14,-99.20166666666667,19.440555555555555,582400.0,"LEVADURA AZTECA, S. A. DE C. V.",INDUSTRIAL,MIGUEL HIDALGO,1997
176,2000-08-02,-99.14444444444445,19.46472222222222,3500.0,I. M. S. S. CENTRO MEDICO NACIONAL LA RAZA(CENTRAL DE SERVICIOS),SERVICIOS,AZCAPOTZALCO,2000
177,2007-06-11,-99.14127777777779,19.456083333333332,30000.0,"LEVADURA AZTECA, S. A. DE C.V.",INDUSTRIAL,CUAUHTÉMOC,2007
178,2007-06-11,-99.14161111111112,19.455305555555555,30000.0,"LEVADURA AZTECA, S. A. DE C.V.",INDUSTRIAL,CUAUHTÉMOC,2007
179,1999-10-18,-99.18194444444445,19.330555555555556,2984659.0,UNIVERSIDAD NACIONAL AUTÓNOMA DE MÉXICO,SERVICIOS,COYOACÁN,1999
180,1999-10-18,-99.1913888888889,19.325,2984659.0,UNIVERSIDAD NACIONAL AUTÓNOMA DE MÉXICO,SERVICIOS,COYOACÁN,1999
181,1999-10-18,-99.19472222222223,19.313055555555557,2984659.0,UNIVERSIDAD NACIONAL AUTÓNOMA DE MÉXICO,SERVICIOS,COYOACÁN,1999
182,1998-01-20,-99.15305555555557,19.40694444444444,411.5,"ASOCIACION FRANCO MEXICANA SUIZA Y BELGA DE BENEFICIENCIA, I. A. P./PANTEON FRANCES",SERVICIOS,CUAUHTÉMOC,1998
183,1996-05-06,-99.10833333333333,19.475555555555555,383467.0,"PROCTER & GAMBLE MANUFACTURA, S. DE R.L. DE C.V.",INDUSTRIAL,GUSTAVO A. MADERO,1996
184,1996-05-06,-99.11055555555555,19.47583333333333,383467.0,"PROCTER & GAMBLE MANUFACTURA, S. DE R.L. DE C.V.",INDUSTRIAL,GUSTAVO A. MADERO,1996
185,1997-06-03,-99.20138888888889,19.34722222222222,411.0,"INMUEBLES E INVERSIONES, S. A.",SERVICIOS,ÁLVARO OBREGÓN,1997
186,1996-06-20,-99.11749999999999,19.355555555555558,22487.0,"UNIVERSIDAD TECNOLOGICA DE MEXICO, S. C.",SERVICIOS,IZTAPALAPA,1996
187,1994-06-23,-99.13666666666667,19.39527777777778,134200.0,MANUEL MUÑOS MUÑOS /BAÑOS RIVIERA,INDUSTRIAL,COYOACÁN,1994
188,1994-06-23,-99.18722222222223,19.374444444444446,134200.0,MANUEL MUÑOS MUÑOS /BAÑOS RIVIERA,INDUSTRIAL,COYOACÁN,1994
189,1997-02-07,-99.15277777777779,19.448611111111113,1126.0,MANUEL SIEIRO CASTRO/BAÑOS CHOPO,SERVICIOS,IZTACALCO,1997
190,1998-08-25,-99.12472222222222,19.45722222222222,2800.0,MARIA DE LA PAZ GARCIA POSADA,SERVICIOS,IZTACALCO,1998
191,1998-12-23,-99.11388888888888,19.45,64260.0,JUAN XOLALPA JIMENEZ,SERVICIOS,VENUSTIANO CARRANZA,1998
192,1999-08-30,-99.18944444444445,19.472777777777775,145000.0,"PLUS GRUPO INMOBILIARIO, S. A.DE C. V.",INDUSTRIAL,AZCAPOTZALCO,1999
193,1995-09-07,-99.20555555555556,19.4375,12528.0,"EL DUERO, S.A. DE C.V.",INDUSTRIAL,TLÁHUAC,1995
194,1996-04-23,-99.07666666666667,19.40361111111111,9102.0,"INMOBILIARIA INDUSTRIMEX, S. A. DE C.V.",INDUSTRIAL,IZTACALCO,1996
195,1996-10-24,-99.14583333333334,19.39638888888889,3000.0,SECRETARIA DE COMUNICACIONES Y TRANSPORTES,SERVICIOS,COYOACÁN,1996
196,1995-05-31,-99.14333333333335,19.346944444444443,45780.0,"CLUB CAMPESTRE DE LA CIUDAD DE MEXICO, S. A. DE C. V.",SERVICIOS,COYOACÁN,1995
197,1995-05-31,-99.1438888888889,19.346666666666664,45780.0,"CLUB CAMPESTRE DE LA CIUDAD DE MEXICO, S. A. DE C. V.",SERVICIOS,COYOACÁN,1995
198,1996-06-28,-99.17194444444445,19.302500000000002,780516000.0,SISTEMA DE AGUAS DE LA CIUDAD DE MEXICO,PÚBLICO URBANO,TLALPAN,1996
199,1996-06-28,-99.14152777777778,19.279,780516000.0,SISTEMA DE AGUAS DE LA CIUDAD DE MEXICO,PÚBLICO URBANO,TLALPAN,1996
200,1996-06-28,-99.19522222222223,19.296472222222224,780516000.0,SISTEMA DE AGUAS DE LA CIUDAD DE MEXICO,PÚBLICO URBANO,TLALPAN,1996
201,1996-06-28,-99.19547222222222,19.29427777777778,780516000.0,SISTEMA DE AGUAS DE LA CIUDAD DE MEXICO,PÚBLICO URBANO,TLALPAN,1996
202,1996-06-28,-99.20636111111111,19.305027777777777,780516000.0,SISTEMA DE AGUAS DE LA CIUDAD DE MEXICO,PÚBLICO URBANO,TLALPAN,1996
203,1996-06-28,-99.23127777777778,19.303166666666666,780516000.0,SISTEMA DE AGUAS DE LA CIUDAD DE MEXICO,PÚBLICO URBANO,TLALPAN,1996
204,1996-06-28,-99.17822222222223,19.303583333333336,780516000.0,SISTEMA DE AGUAS DE LA CIUDAD DE MEXICO,PÚBLICO URBANO,COYOACÁN,1996
205,1996-06-28,-99.1901388888889,19.302611111111112,780516000.0,SISTEMA DE AGUAS DE LA CIUDAD DE MEXICO,PÚBLICO URBANO,COYOACÁN,1996
206,1996-06-28,-99.19336111111112,19.302555555555557,780516000.0,SISTEMA DE AGUAS DE LA CIUDAD DE MEXICO,PÚBLICO URBANO,COYOACÁN,1996
207,1996-06-28,-99.21308333333333,19.307166666666667,780516000.0,SISTEMA DE AGUAS DE LA CIUDAD DE MEXICO,PÚBLICO URBANO,ÁLVARO OBREGÓN,1996
208,1996-06-28,-99.16980555555556,19.312305555555557,780516000.0,SISTEMA DE AGUAS DE LA CIUDAD DE MEXICO,PÚBLICO URBANO,COYOACÁN,1996
209,1996-06-28,-99.16277777777778,19.330305555555555,780516000.0,SISTEMA DE AGUAS DE LA CIUDAD DE MEXICO,PÚBLICO URBANO,COYOACÁN,1996
210,1996-06-28,-99.16130555555556,19.29077777777778,780516000.0,SISTEMA DE AGUAS DE LA CIUDAD DE MEXICO,PÚBLICO URBANO,TLALPAN,1996
211,1996-06-28,-99.15941666666667,19.27211111111111,780516000.0,SISTEMA DE AGUAS DE LA CIUDAD DE MEXICO,PÚBLICO URBANO,TLALPAN,1996
212,1996-06-28,-99.12505555555555,19.296916666666668,780516000.0,SISTEMA DE AGUAS DE LA CIUDAD DE MEXICO,PÚBLICO URBANO,TLALPAN,1996
213,1996-06-28,-99.10805555555555,19.296055555555558,780516000.0,SISTEMA DE AGUAS DE LA CIUDAD DE MEXICO,PÚBLICO URBANO,TLALPAN,1996
214,1996-06-28,-99.12405555555554,19.306694444444446,780516000.0,SISTEMA DE AGUAS DE LA CIUDAD DE MEXICO,PÚBLICO URBANO,COYOACÁN,1996
215,1996-06-28,-99.11972222222222,19.314194444444446,780516000.0,SISTEMA DE AGUAS DE LA CIUDAD DE MEXICO,PÚBLICO URBANO,COYOACÁN,1996
216,1996-06-28,-99.17433333333334,19.281888888888886,780516000.0,SISTEMA DE AGUAS DE LA CIUDAD DE MEXICO,PÚBLICO URBANO,TLALPAN,1996
217,1996-06-28,-99.11794444444443,19.221277777777775,780516000.0,SISTEMA DE AGUAS DE LA CIUDAD DE MEXICO,PÚBLICO URBANO,XOCHIMILCO,1996
218,1996-06-28,-99.1185,19.218444444444444,780516000.0,SISTEMA DE AGUAS DE LA CIUDAD DE MEXICO,PÚBLICO URBANO,XOCHIMILCO,1996
219,1996-06-28,-99.22200000000001,19.310305555555555,780516000.0,SISTEMA DE AGUAS DE LA CIUDAD DE MEXICO,PÚBLICO URBANO,TLALPAN,1996
220,1996-06-28,-99.22361111111111,19.30638888888889,780516000.0,SISTEMA DE AGUAS DE LA CIUDAD DE MEXICO,PÚBLICO URBANO,TLALPAN,1996
221,1996-06-28,-99.21775,19.308111111111113,780516000.0,SISTEMA DE AGUAS DE LA CIUDAD DE MEXICO,PÚBLICO URBANO,TLALPAN,1996
222,1996-06-28,-99.22113888888889,19.315527777777778,780516000.0,SISTEMA DE AGUAS DE LA CIUDAD DE MEXICO,PÚBLICO URBANO,LA MAGDALENA CONTRERAS,1996
223,1996-06-28,-99.21061111111112,19.302222222222223,780516000.0,SISTEMA DE AGUAS DE LA CIUDAD DE MEXICO,PÚBLICO URBANO,TLALPAN,1996
224,1996-06-28,-99.21925,19.30063888888889,780516000.0,SISTEMA DE AGUAS DE LA CIUDAD DE MEXICO,PÚBLICO URBANO,TLALPAN,1996
225,1996-06-28,-99.17141666666667,19.308972222222224,780516000.0,SISTEMA DE AGUAS DE LA CIUDAD DE MEXICO,PÚBLICO URBANO,COYOACÁN,1996
226,1996-06-28,-99.1701388888889,19.27133333333333,780516000.0,SISTEMA DE AGUAS DE LA CIUDAD DE MEXICO,PÚBLICO URBANO,TLALPAN,1996
227,1996-06-28,-99.12388888888889,19.34,780516000.0,SISTEMA DE AGUAS DE LA CIUDAD DE MEXICO,PÚBLICO URBANO,COYOACÁN,1996
228,1996-06-28,-99.18925,19.338388888888886,780516000.0,SISTEMA DE AGUAS DE LA CIUDAD DE MEXICO,PÚBLICO URBANO,COYOACÁN,1996
229,1996-06-28,-99.17375,19.27213888888889,780516000.0,SISTEMA DE AGUAS DE LA CIUDAD DE MEXICO,PÚBLICO URBANO,TLALPAN,1996
230,1996-06-28,-99.16122222222222,19.283833333333334,780516000.0,SISTEMA DE AGUAS DE LA CIUDAD DE MEXICO,PÚBLICO URBANO,TLALPAN,1996
231,1996-06-28,-99.16308333333333,19.281166666666667,780516000.0,SISTEMA DE AGUAS DE LA CIUDAD DE MEXICO,PÚBLICO URBANO,TLALPAN,1996
232,1996-06-28,-99.15994444444445,19.32488888888889,780516000.0,SISTEMA DE AGUAS DE LA CIUDAD DE MEXICO,PÚBLICO URBANO,COYOACÁN,1996
233,1996-06-28,-99.10111111111111,19.294722222222223,780516000.0,SISTEMA DE AGUAS DE LA CIUDAD DE MEXICO,PÚBLICO URBANO,TLÁHUAC,1996
234,1996-06-28,-99.14686111111112,19.28516666666667,780516000.0,SISTEMA DE AGUAS DE LA CIUDAD DE MEXICO,PÚBLICO URBANO,TLALPAN,1996
235,1996-06-28,-99.1493888888889,19.288027777777778,780516000.0,SISTEMA DE AGUAS DE LA CIUDAD DE MEXICO,PÚBLICO URBANO,TLALPAN,1996
236,1996-06-28,-99.1526388888889,19.29188888888889,780516000.0,SISTEMA DE AGUAS DE LA CIUDAD DE MEXICO,PÚBLICO URBANO,TLALPAN,1996
237,1996-06-28,-99.15586111111112,19.296277777777778,780516000.0,SISTEMA DE AGUAS DE LA CIUDAD DE MEXICO,PÚBLICO URBANO,COYOACÁN,1996
238,1996-06-28,-99.00219444444444,19.24416666666667,780516000.0,SISTEMA DE AGUAS DE LA CIUDAD DE MEXICO,PÚBLICO URBANO,TLÁHUAC,1996
239,1996-06-28,-99.1,19.30125,780516000.0,SISTEMA DE AGUAS DE LA CIUDAD DE MEXICO,PÚBLICO URBANO,COYOACÁN,1996
240,1996-06-28,-99.09694444444445,19.312250000000002,780516000.0,SISTEMA DE AGUAS DE LA CIUDAD DE MEXICO,PÚBLICO URBANO,COYOACÁN,1996
241,1996-06-28,-99.14491666666667,19.284055555555558,780516000.0,SISTEMA DE AGUAS DE LA CIUDAD DE MEXICO,PÚBLICO URBANO,TLALPAN,1996
242,1996-06-28,-99.00525,19.247972222222224,780516000.0,SISTEMA DE AGUAS DE LA CIUDAD DE MEXICO,PÚBLICO URBANO,TLÁHUAC,1996
243,1996-06-28,-99.00755555555556,19.248944444444444,780516000.0,SISTEMA DE AGUAS DE LA CIUDAD DE MEXICO,PÚBLICO URBANO,TLÁHUAC,1996
244,1996-06-28,-99.12402777777777,19.285861111111114,780516000.0,SISTEMA DE AGUAS DE LA CIUDAD DE MEXICO,PÚBLICO URBANO,TLALPAN,1996
245,1996-06-28,-99.01308333333333,19.250833333333333,780516000.0,SISTEMA DE AGUAS DE LA CIUDAD DE MEXICO,PÚBLICO URBANO,XOCHIMILCO,1996
246,1996-06-28,-99.01736111111111,19.252111111111113,780516000.0,SISTEMA DE AGUAS DE LA CIUDAD DE MEXICO,PÚBLICO URBANO,XOCHIMILCO,1996
247,1996-06-28,-99.14800000000001,19.29266666666667,780516000.0,SISTEMA DE AGUAS DE LA CIUDAD DE MEXICO,PÚBLICO URBANO,TLALPAN,1996
248,1996-06-28,-99.14647222222223,19.295833333333334,780516000.0,SISTEMA DE AGUAS DE LA CIUDAD DE MEXICO,PÚBLICO URBANO,TLALPAN,1996
249,1996-06-28,-99.14516666666667,19.301944444444445,780516000.0,SISTEMA DE AGUAS DE LA CIUDAD DE MEXICO,PÚBLICO URBANO,TLALPAN,1996
250,1996-06-28,-99.15744444444445,19.299277777777778,780516000.0,SISTEMA DE AGUAS DE LA CIUDAD DE MEXICO,PÚBLICO URBANO,COYOACÁN,1996
251,1996-06-28,-99.16202777777778,19.30138888888889,780516000.0,SISTEMA DE AGUAS DE LA CIUDAD DE MEXICO,PÚBLICO URBANO,COYOACÁN,1996
252,1996-06-28,-99.165,19.308611111111112,780516000.0,SISTEMA DE AGUAS DE LA CIUDAD DE MEXICO,PÚBLICO URBANO,COYOACÁN,1996
253,1996-06-28,-99.09027777777777,19.301666666666666,780516000.0,SISTEMA DE AGUAS DE LA CIUDAD DE MEXICO,PÚBLICO URBANO,XOCHIMILCO,1996
254,1996-06-28,-99.06919444444443,19.285111111111114,780516000.0,SISTEMA DE AGUAS DE LA CIUDAD DE MEXICO,PÚBLICO URBANO,IZTAPALAPA,1996
255,1996-06-28,-99.09027777777777,19.301666666666666,780516000.0,SISTEMA DE AGUAS DE LA CIUDAD DE MEXICO,PÚBLICO URBANO,XOCHIMILCO,1996
256,1996-06-28,-99.08111111111111,19.296944444444446,780516000.0,SISTEMA DE AGUAS DE LA CIUDAD DE MEXICO,PÚBLICO URBANO,IZTAPALAPA,1996
257,1996-06-28,-99.08391666666667,19.300444444444445,780516000.0,SISTEMA DE AGUAS DE LA CIUDAD DE MEXICO,PÚBLICO URBANO,IZTAPALAPA,1996
258,1996-06-28,-99.0886111111111,19.30611111111111,780516000.0,SISTEMA DE AGUAS DE LA CIUDAD DE MEXICO,PÚBLICO URBANO,IZTAPALAPA,1996
259,1996-06-28,-99.09086111111111,19.30888888888889,780516000.0,SISTEMA DE AGUAS DE LA CIUDAD DE MEXICO,PÚBLICO URBANO,IZTAPALAPA,1996
260,1996-06-28,-99.09305555555555,19.311111111111114,780516000.0,SISTEMA DE AGUAS DE LA CIUDAD DE MEXICO,PÚBLICO URBANO,IZTAPALAPA,1996
261,1996-06-28,-99.13722222222223,19.28638888888889,780516000.0,SISTEMA DE AGUAS DE LA CIUDAD DE MEXICO,PÚBLICO URBANO,TLALPAN,1996
262,1996-06-28,-99.12433333333333,19.31888888888889,780516000.0,SISTEMA DE AGUAS DE LA CIUDAD DE MEXICO,PÚBLICO URBANO,COYOACÁN,1996
263,1996-06-28,-99.07583333333334,19.335833333333333,780516000.0,SISTEMA DE AGUAS DE LA CIUDAD DE MEXICO,PÚBLICO URBANO,IZTAPALAPA,1996
264,1996-06-28,-99.14027777777778,19.332472222222222,780516000.0,SISTEMA DE AGUAS DE LA CIUDAD DE MEXICO,PÚBLICO URBANO,COYOACÁN,1996
265,1996-06-28,-99.13527777777779,19.33175,780516000.0,SISTEMA DE AGUAS DE LA CIUDAD DE MEXICO,PÚBLICO URBANO,COYOACÁN,1996
266,1996-06-28,-99.13791666666667,19.328388888888888,780516000.0,SISTEMA DE AGUAS DE LA CIUDAD DE MEXICO,PÚBLICO URBANO,COYOACÁN,1996
267,1996-06-28,-99.1366388888889,19.33013888888889,780516000.0,SISTEMA DE AGUAS DE LA CIUDAD DE MEXICO,PÚBLICO URBANO,COYOACÁN,1996
268,1996-06-28,-99.13394444444445,19.330027777777776,780516000.0,SISTEMA DE AGUAS DE LA CIUDAD DE MEXICO,PÚBLICO URBANO,COYOACÁN,1996
269,1996-06-28,-99.17444444444445,19.364500000000003,780516000.0,SISTEMA DE AGUAS DE LA CIUDAD DE MEXICO,PÚBLICO URBANO,BENITO JUÁREZ,1996
270,1996-06-28,-99.15805555555556,19.307222222222222,780516000.0,SISTEMA DE AGUAS DE LA CIUDAD DE MEXICO,PÚBLICO URBANO,COYOACÁN,1996
271,1996-06-28,-99.14916666666667,19.357222222222223,780516000.0,SISTEMA DE AGUAS DE LA CIUDAD DE MEXICO,PÚBLICO URBANO,COYOACÁN,1996
272,1996-06-28,-99.13158333333332,19.328666666666667,780516000.0,SISTEMA DE AGUAS DE LA CIUDAD DE MEXICO,PÚBLICO URBANO,COYOACÁN,1996
273,1996-06-28,-99.13436111111112,19.325416666666666,780516000.0,SISTEMA DE AGUAS DE LA CIUDAD DE MEXICO,PÚBLICO URBANO,COYOACÁN,1996
274,1996-06-28,-99.02027777777778,19.377222222222223,780516000.0,SISTEMA DE AGUAS DE LA CIUDAD DE MEXICO,PÚBLICO URBANO,IZTAPALAPA,1996
275,1996-06-28,-99.08494444444445,19.379194444444444,780516000.0,SISTEMA DE AGUAS DE LA CIUDAD DE MEXICO,PÚBLICO URBANO,IZTACALCO,1996
276,1996-06-28,-99.11166666666666,19.35875,780516000.0,SISTEMA DE AGUAS DE LA CIUDAD DE MEXICO,PÚBLICO URBANO,IZTAPALAPA,1996
277,1996-06-28,-99.08055555555555,19.31277777777778,780516000.0,SISTEMA DE AGUAS DE LA CIUDAD DE MEXICO,PÚBLICO URBANO,IZTAPALAPA,1996
278,1996-06-28,-98.97722222222222,19.334166666666665,780516000.0,SISTEMA DE AGUAS DE LA CIUDAD DE MEXICO,PÚBLICO URBANO,IZTAPALAPA,1996
279,1996-06-28,-99.11994444444444,19.346527777777776,780516000.0,SISTEMA DE AGUAS DE LA CIUDAD DE MEXICO,PÚBLICO URBANO,COYOACÁN,1996
280,1996-06-28,-99.08111111111111,19.381666666666668,780516000.0,SISTEMA DE AGUAS DE LA CIUDAD DE MEXICO,PÚBLICO URBANO,IZTAPALAPA,1996
281,1996-06-28,-99.13058333333332,19.32275,780516000.0,SISTEMA DE AGUAS DE LA CIUDAD DE MEXICO,PÚBLICO URBANO,COYOACÁN,1996
282,1996-06-28,-99.11333333333333,19.337777777777777,780516000.0,SISTEMA DE AGUAS DE LA CIUDAD DE MEXICO,PÚBLICO URBANO,IZTAPALAPA,1996
283,1996-06-28,-99.15,19.28805555555556,780516000.0,SISTEMA DE AGUAS DE LA CIUDAD DE MEXICO,PÚBLICO URBANO,TLÁHUAC,1996
284,1996-06-28,-99.18,19.3075,780516000.0,SISTEMA DE AGUAS DE LA CIUDAD DE MEXICO,PÚBLICO URBANO,COYOACÁN,1996
285,1996-06-28,-99.07333333333332,19.32111111111111,780516000.0,SISTEMA DE AGUAS DE LA CIUDAD DE MEXICO,PÚBLICO URBANO,IZTAPALAPA,1996
286,1996-06-28,-99.1111111111111,19.445555555555554,780516000.0,SISTEMA DE AGUAS DE LA CIUDAD DE MEXICO,PÚBLICO URBANO,VENUSTIANO CARRANZA,1996
287,1996-06-28,-99.12583333333333,19.322777777777777,780516000.0,SISTEMA DE AGUAS DE LA CIUDAD DE MEXICO,PÚBLICO URBANO,COYOACÁN,1996
288,1996-06-28,-99.065,19.331944444444446,780516000.0,SISTEMA DE AGUAS DE LA CIUDAD DE MEXICO,PÚBLICO URBANO,IZTAPALAPA,1996
289,1996-06-28,-99.15861111111111,19.320194444444443,780516000.0,SISTEMA DE AGUAS DE LA CIUDAD DE MEXICO,PÚBLICO URBANO,COYOACÁN,1996
290,1996-06-28,-99.13361111111112,19.365555555555556,780516000.0,SISTEMA DE AGUAS DE LA CIUDAD DE MEXICO,PÚBLICO URBANO,IZTAPALAPA,1996
291,1996-06-28,-99.13361111111112,19.35611111111111,780516000.0,SISTEMA DE AGUAS DE LA CIUDAD DE MEXICO,PÚBLICO URBANO,COYOACÁN,1996
292,1996-06-28,-99.12394444444443,19.32361111111111,780516000.0,SISTEMA DE AGUAS DE LA CIUDAD DE MEXICO,PÚBLICO URBANO,COYOACÁN,1996
293,1996-06-28,-99.07944444444443,19.459444444444443,780516000.0,SISTEMA DE AGUAS DE LA CIUDAD DE MEXICO,PÚBLICO URBANO,GUSTAVO A. MADERO,1996
294,1996-06-28,-99.16444444444446,19.317777777777778,780516000.0,SISTEMA DE AGUAS DE LA CIUDAD DE MEXICO,PÚBLICO URBANO,COYOACÁN,1996
295,1996-06-28,-99.16444444444446,19.317777777777778,780516000.0,SISTEMA DE AGUAS DE LA CIUDAD DE MEXICO,PÚBLICO URBANO,COYOACÁN,1996
296,1996-06-28,-99.1568888888889,19.45047222222222,780516000.0,SISTEMA DE AGUAS DE LA CIUDAD DE MEXICO,PÚBLICO URBANO,CUAUHTÉMOC,1996
297,1996-06-28,-99.19611111111111,19.375944444444446,780516000.0,SISTEMA DE AGUAS DE LA CIUDAD DE MEXICO,PÚBLICO URBANO,ÁLVARO OBREGÓN,1996
298,1996-06-28,-99.14094444444446,19.40586111111111,780516000.0,SISTEMA DE AGUAS DE LA CIUDAD DE MEXICO,PÚBLICO URBANO,CUAUHTÉMOC,1996
299,1996-06-28,-99.19930555555555,19.34797222222222,780516000.0,SISTEMA DE AGUAS DE LA CIUDAD DE MEXICO,PÚBLICO URBANO,ÁLVARO OBREGÓN,1996
300,1996-06-28,-99.17991666666667,19.342444444444443,780516000.0,SISTEMA DE AGUAS DE LA CIUDAD DE MEXICO,PÚBLICO URBANO,COYOACÁN,1996
301,1996-06-28,-99.18711111111112,19.383444444444443,780516000.0,SISTEMA DE AGUAS DE LA CIUDAD DE MEXICO,PÚBLICO URBANO,BENITO JUÁREZ,1996
302,1996-06-28,-99.16711111111111,19.357111111111113,780516000.0,SISTEMA DE AGUAS DE LA CIUDAD DE MEXICO,PÚBLICO URBANO,ÁLVARO OBREGÓN,1996
303,1996-06-28,-99.11008333333332,19.411944444444444,780516000.0,SISTEMA DE AGUAS DE LA CIUDAD DE MEXICO,PÚBLICO URBANO,VENUSTIANO CARRANZA,1996
304,1996-06-28,-99.10127777777777,19.41036111111111,780516000.0,SISTEMA DE AGUAS DE LA CIUDAD DE MEXICO,PÚBLICO URBANO,VENUSTIANO CARRANZA,1996
305,1996-06-28,-99.16580555555556,19.276833333333332,780516000.0,SISTEMA DE AGUAS DE LA CIUDAD DE MEXICO,PÚBLICO URBANO,TLALPAN,1996
306,1996-06-28,-99.19286111111111,19.366444444444447,780516000.0,SISTEMA DE AGUAS DE LA CIUDAD DE MEXICO,PÚBLICO URBANO,ÁLVARO OBREGÓN,1996
307,1996-06-28,-99.20166666666667,19.434416666666667,780516000.0,SISTEMA DE AGUAS DE LA CIUDAD DE MEXICO,PÚBLICO URBANO,MIGUEL HIDALGO,1996
308,1996-06-28,-99.09133333333332,19.402055555555553,780516000.0,SISTEMA DE AGUAS DE LA CIUDAD DE MEXICO,PÚBLICO URBANO,IZTACALCO,1996
309,1996-06-28,-99.182,19.465416666666666,780516000.0,SISTEMA DE AGUAS DE LA CIUDAD DE MEXICO,PÚBLICO URBANO,AZCAPOTZALCO,1996
310,1996-06-28,-99.09438888888889,19.326583333333332,780516000.0,SISTEMA DE AGUAS DE LA CIUDAD DE MEXICO,PÚBLICO URBANO,IZTAPALAPA,1996
311,1996-06-28,-99.18544444444444,19.336555555555556,780516000.0,SISTEMA DE AGUAS DE LA CIUDAD DE MEXICO,PÚBLICO URBANO,COYOACÁN,1996
312,1996-06-28,-99.11530555555555,19.399527777777777,780516000.0,SISTEMA DE AGUAS DE LA CIUDAD DE MEXICO,PÚBLICO URBANO,IZTACALCO,1996
313,1996-06-28,-99.18825000000001,19.433666666666667,780516000.0,SISTEMA DE AGUAS DE LA CIUDAD DE MEXICO,PÚBLICO URBANO,MIGUEL HIDALGO,1996
314,1996-06-28,-99.14002777777779,19.338083333333334,780516000.0,SISTEMA DE AGUAS DE LA CIUDAD DE MEXICO,PÚBLICO URBANO,COYOACÁN,1996
315,1996-06-28,-99.13149999999999,19.33513888888889,780516000.0,SISTEMA DE AGUAS DE LA CIUDAD DE MEXICO,PÚBLICO URBANO,COYOACÁN,1996
316,1996-06-28,-99.16908333333333,19.278805555555554,780516000.0,SISTEMA DE AGUAS DE LA CIUDAD DE MEXICO,PÚBLICO URBANO,TLALPAN,1996
317,1996-06-28,-99.13675,19.361500000000003,780516000.0,SISTEMA DE AGUAS DE LA CIUDAD DE MEXICO,PÚBLICO URBANO,IZTAPALAPA,1996
318,1996-06-28,-99.12758333333332,19.35563888888889,780516000.0,SISTEMA DE AGUAS DE LA CIUDAD DE MEXICO,PÚBLICO URBANO,COYOACÁN,1996
319,1996-06-28,-99.10425,19.36616666666667,780516000.0,SISTEMA DE AGUAS DE LA CIUDAD DE MEXICO,PÚBLICO URBANO,IZTAPALAPA,1996
320,1996-06-28,-99.18311111111112,19.291472222222225,780516000.0,SISTEMA DE AGUAS DE LA CIUDAD DE MEXICO,PÚBLICO URBANO,TLALPAN,1996
321,1996-06-28,-99.18916666666667,19.41638888888889,780516000.0,SISTEMA DE AGUAS DE LA CIUDAD DE MEXICO,PÚBLICO URBANO,MIGUEL HIDALGO,1996
322,1996-06-28,-99.18411111111112,19.34386111111111,780516000.0,SISTEMA DE AGUAS DE LA CIUDAD DE MEXICO,PÚBLICO URBANO,ÁLVARO OBREGÓN,1996
323,1996-06-28,-99.20772222222223,19.444027777777777,780516000.0,SISTEMA DE AGUAS DE LA CIUDAD DE MEXICO,PÚBLICO URBANO,MIGUEL HIDALGO,1996
324,1996-06-28,-99.09227777777777,19.359944444444444,780516000.0,SISTEMA DE AGUAS DE LA CIUDAD DE MEXICO,PÚBLICO URBANO,IZTAPALAPA,1996
325,1996-06-28,-99.1006111111111,19.356083333333334,780516000.0,SISTEMA DE AGUAS DE LA CIUDAD DE MEXICO,PÚBLICO URBANO,IZTAPALAPA,1996
326,1996-06-28,-99.17838888888889,19.29352777777778,780516000.0,SISTEMA DE AGUAS DE LA CIUDAD DE MEXICO,PÚBLICO URBANO,TLALPAN,1996
327,1996-06-28,-99.19186111111111,19.344305555555554,780516000.0,SISTEMA DE AGUAS DE LA CIUDAD DE MEXICO,PÚBLICO URBANO,ÁLVARO OBREGÓN,1996
328,1996-06-28,-99.09444444444443,19.478888888888886,780516000.0,SISTEMA DE AGUAS DE LA CIUDAD DE MEXICO,PÚBLICO URBANO,GUSTAVO A. MADERO,1996
329,1996-06-28,-99.21083333333334,19.31738888888889,780516000.0,SISTEMA DE AGUAS DE LA CIUDAD DE MEXICO,PÚBLICO URBANO,ÁLVARO OBREGÓN,1996
330,1996-06-28,-99.09527777777777,19.473611111111108,780516000.0,SISTEMA DE AGUAS DE LA CIUDAD DE MEXICO,PÚBLICO URBANO,GUSTAVO A. MADERO,1996
331,1996-06-28,-99.16055555555556,19.360555555555557,780516000.0,SISTEMA DE AGUAS DE LA CIUDAD DE MEXICO,PÚBLICO URBANO,BENITO JUÁREZ,1996
332,1996-06-28,-99.18347222222222,19.392666666666667,780516000.0,SISTEMA DE AGUAS DE LA CIUDAD DE MEXICO,PÚBLICO URBANO,BENITO JUÁREZ,1996
333,1996-06-28,-99.18375,19.372194444444446,780516000.0,SISTEMA DE AGUAS DE LA CIUDAD DE MEXICO,PÚBLICO URBANO,BENITO JUÁREZ,1996
334,1996-06-28,-99.16622222222223,19.343888888888888,780516000.0,SISTEMA DE AGUAS DE LA CIUDAD DE MEXICO,PÚBLICO URBANO,COYOACÁN,1996
335,1996-06-28,-99.20119444444445,19.447666666666667,780516000.0,SISTEMA DE AGUAS DE LA CIUDAD DE MEXICO,PÚBLICO URBANO,MIGUEL HIDALGO,1996
336,1996-06-28,-99.10583333333332,19.34361111111111,780516000.0,SISTEMA DE AGUAS DE LA CIUDAD DE MEXICO,PÚBLICO URBANO,BENITO JUÁREZ,1996
337,1996-06-28,-99.17625000000001,19.441055555555558,780516000.0,SISTEMA DE AGUAS DE LA CIUDAD DE MEXICO,PÚBLICO URBANO,MIGUEL HIDALGO,1996
338,1996-06-28,-99.14277777777778,19.30666666666667,780516000.0,SISTEMA DE AGUAS DE LA CIUDAD DE MEXICO,PÚBLICO URBANO,MIGUEL HIDALGO,1996
339,1996-06-28,-99.18466666666667,19.39713888888889,780516000.0,SISTEMA DE AGUAS DE LA CIUDAD DE MEXICO,PÚBLICO URBANO,MIGUEL HIDALGO,1996
340,1996-06-28,-99.18452777777779,19.387888888888888,780516000.0,SISTEMA DE AGUAS DE LA CIUDAD DE MEXICO,PÚBLICO URBANO,BENITO JUÁREZ,1996
341,1996-06-28,-99.13472222222222,19.394444444444446,780516000.0,SISTEMA DE AGUAS DE LA CIUDAD DE MEXICO,PÚBLICO URBANO,BENITO JUÁREZ,1996
342,1996-06-28,-99.19347222222223,19.416361111111108,780516000.0,SISTEMA DE AGUAS DE LA CIUDAD DE MEXICO,PÚBLICO URBANO,MIGUEL HIDALGO,1996
343,1996-06-28,-99.12963888888888,19.29425,780516000.0,SISTEMA DE AGUAS DE LA CIUDAD DE MEXICO,PÚBLICO URBANO,TLALPAN,1996
344,1996-06-28,-99.11680555555554,19.289444444444445,780516000.0,SISTEMA DE AGUAS DE LA CIUDAD DE MEXICO,PÚBLICO URBANO,TLALPAN,1996
345,1996-06-28,-99.07855555555555,19.47438888888889,780516000.0,SISTEMA DE AGUAS DE LA CIUDAD DE MEXICO,PÚBLICO URBANO,GUSTAVO A. MADERO,1996
346,1996-06-28,-99.13775000000001,19.379805555555556,780516000.0,SISTEMA DE AGUAS DE LA CIUDAD DE MEXICO,PÚBLICO URBANO,BENITO JUÁREZ,1996
347,1996-06-28,-99.13472222222222,19.380583333333334,780516000.0,SISTEMA DE AGUAS DE LA CIUDAD DE MEXICO,PÚBLICO URBANO,BENITO JUÁREZ,1996
348,1996-06-28,-99.16927777777778,19.486444444444444,780516000.0,SISTEMA DE AGUAS DE LA CIUDAD DE MEXICO,PÚBLICO URBANO,AZCAPOTZALCO,1996
349,1996-06-28,-99.16972222222223,19.478805555555553,780516000.0,SISTEMA DE AGUAS DE LA CIUDAD DE MEXICO,PÚBLICO URBANO,AZCAPOTZALCO,1996
350,1996-06-28,-99.07969444444444,19.338083333333334,780516000.0,SISTEMA DE AGUAS DE LA CIUDAD DE MEXICO,PÚBLICO URBANO,IZTAPALAPA,1996
351,1996-06-28,-99.07461111111111,19.33886111111111,780516000.0,SISTEMA DE AGUAS DE LA CIUDAD DE MEXICO,PÚBLICO URBANO,IZTAPALAPA,1996
352,1996-06-28,-99.16388888888889,19.39,780516000.0,SISTEMA DE AGUAS DE LA CIUDAD DE MEXICO,PÚBLICO URBANO,BENITO JUÁREZ,1996
353,1996-06-28,-99.16222222222223,19.47,780516000.0,SISTEMA DE AGUAS DE LA CIUDAD DE MEXICO,PÚBLICO URBANO,AZCAPOTZALCO,1996
354,1996-06-28,-99.03122222222223,19.384055555555555,780516000.0,SISTEMA DE AGUAS DE LA CIUDAD DE MEXICO,PÚBLICO URBANO,IZTAPALAPA,1996
355,1996-06-28,-99.03402777777778,19.364583333333336,780516000.0,SISTEMA DE AGUAS DE LA CIUDAD DE MEXICO,PÚBLICO URBANO,IZTAPALAPA,1996
356,1996-06-28,-99.023,19.380166666666668,780516000.0,SISTEMA DE AGUAS DE LA CIUDAD DE MEXICO,PÚBLICO URBANO,IZTAPALAPA,1996
357,1996-06-28,-99.04561111111111,19.372055555555555,780516000.0,SISTEMA DE AGUAS DE LA CIUDAD DE MEXICO,PÚBLICO URBANO,IZTAPALAPA,1996
358,1996-06-28,-99.02347222222222,19.375444444444444,780516000.0,SISTEMA DE AGUAS DE LA CIUDAD DE MEXICO,PÚBLICO URBANO,IZTAPALAPA,1996
359,1996-06-28,-99.02716666666666,19.37238888888889,780516000.0,SISTEMA DE AGUAS DE LA CIUDAD DE MEXICO,PÚBLICO URBANO,IZTAPALAPA,1996
360,1996-06-28,-99.03113888888889,19.370083333333334,780516000.0,SISTEMA DE AGUAS DE LA CIUDAD DE MEXICO,PÚBLICO URBANO,IZTAPALAPA,1996
361,1996-06-28,-99.03516666666667,19.37302777777778,780516000.0,SISTEMA DE AGUAS DE LA CIUDAD DE MEXICO,PÚBLICO URBANO,IZTAPALAPA,1996
362,1996-06-28,-99.03452777777778,19.37513888888889,780516000.0,SISTEMA DE AGUAS DE LA CIUDAD DE MEXICO,PÚBLICO URBANO,IZTAPALAPA,1996
363,1996-06-28,-99.1066111111111,19.282638888888886,780516000.0,SISTEMA DE AGUAS DE LA CIUDAD DE MEXICO,PÚBLICO URBANO,XOCHIMILCO,1996
364,1996-06-28,-99.11583333333333,19.280833333333334,780516000.0,SISTEMA DE AGUAS DE LA CIUDAD DE MEXICO,PÚBLICO URBANO,XOCHIMILCO,1996
365,1996-06-28,-99.19550000000001,19.38775,780516000.0,SISTEMA DE AGUAS DE LA CIUDAD DE MEXICO,PÚBLICO URBANO,ÁLVARO OBREGÓN,1996
366,1996-06-28,-99.20805555555556,19.50777777777778,780516000.0,SISTEMA DE AGUAS DE LA CIUDAD DE MEXICO,PÚBLICO URBANO,AZCAPOTZALCO,1996
367,1996-06-28,-99.13472222222222,19.304444444444446,780516000.0,SISTEMA DE AGUAS DE LA CIUDAD DE MEXICO,PÚBLICO URBANO,TLALPAN,1996
368,1996-06-28,-99.07466666666666,19.355,780516000.0,SISTEMA DE AGUAS DE LA CIUDAD DE MEXICO,PÚBLICO URBANO,IZTAPALAPA,1996
369,1996-06-28,-99.07227777777777,19.357666666666667,780516000.0,SISTEMA DE AGUAS DE LA CIUDAD DE MEXICO,PÚBLICO URBANO,IZTAPALAPA,1996
370,1996-06-28,-99.07108333333333,19.361222222222224,780516000.0,SISTEMA DE AGUAS DE LA CIUDAD DE MEXICO,PÚBLICO URBANO,IZTAPALAPA,1996
371,1996-06-28,-99.15166666666667,19.387305555555557,780516000.0,SISTEMA DE AGUAS DE LA CIUDAD DE MEXICO,PÚBLICO URBANO,BENITO JUÁREZ,1996
372,1996-06-28,-99.13080555555555,19.38611111111111,780516000.0,SISTEMA DE AGUAS DE LA CIUDAD DE MEXICO,PÚBLICO URBANO,IZTACALCO,1996
373,1996-06-28,-99.17127777777779,19.34347222222222,780516000.0,SISTEMA DE AGUAS DE LA CIUDAD DE MEXICO,PÚBLICO URBANO,COYOACÁN,1996
374,1996-06-28,-99.14586111111112,19.31972222222222,780516000.0,SISTEMA DE AGUAS DE LA CIUDAD DE MEXICO,PÚBLICO URBANO,COYOACÁN,1996
375,1996-06-28,-99.17527777777778,19.455555555555556,780516000.0,SISTEMA DE AGUAS DE LA CIUDAD DE MEXICO,PÚBLICO URBANO,MIGUEL HIDALGO,1996
376,1996-06-28,-99.17608333333334,19.295527777777778,780516000.0,SISTEMA DE AGUAS DE LA CIUDAD DE MEXICO,PÚBLICO URBANO,TLALPAN,1996
377,1996-06-28,-99.22027777777778,19.322777777777777,780516000.0,SISTEMA DE AGUAS DE LA CIUDAD DE MEXICO,PÚBLICO URBANO,LA MAGDALENA CONTRERAS,1996
378,1996-06-28,-99.2115,19.449444444444445,780516000.0,SISTEMA DE AGUAS DE LA CIUDAD DE MEXICO,PÚBLICO URBANO,MIGUEL HIDALGO,1996
379,1996-06-28,-99.20080555555556,19.488,780516000.0,SISTEMA DE AGUAS DE LA CIUDAD DE MEXICO,PÚBLICO URBANO,AZCAPOTZALCO,1996
380,1996-06-28,-99.11736111111111,19.37338888888889,780516000.0,SISTEMA DE AGUAS DE LA CIUDAD DE MEXICO,PÚBLICO URBANO,IZTAPALAPA,1996
381,1996-06-28,-99.07063888888888,19.310222222222222,780516000.0,SISTEMA DE AGUAS DE LA CIUDAD DE MEXICO,PÚBLICO URBANO,IZTAPALAPA,1996
382,1996-06-28,-99.15694444444445,19.450555555555553,780516000.0,SISTEMA DE AGUAS DE LA CIUDAD DE MEXICO,PÚBLICO URBANO,BENITO JUÁREZ,1996
383,1996-06-28,-99.19222222222223,19.505,780516000.0,SISTEMA DE AGUAS DE LA CIUDAD DE MEXICO,PÚBLICO URBANO,AZCAPOTZALCO,1996
384,1996-06-28,-99.20294444444444,19.5015,780516000.0,SISTEMA DE AGUAS DE LA CIUDAD DE MEXICO,PÚBLICO URBANO,AZCAPOTZALCO,1996
385,1996-06-28,-99.205,19.475166666666667,780516000.0,SISTEMA DE AGUAS DE LA CIUDAD DE MEXICO,PÚBLICO URBANO,AZCAPOTZALCO,1996
386,1996-06-28,-99.21527777777779,19.481944444444444,780516000.0,SISTEMA DE AGUAS DE LA CIUDAD DE MEXICO,PÚBLICO URBANO,AZCAPOTZALCO,1996
387,1996-06-28,-99.10499999999999,19.430555555555557,780516000.0,SISTEMA DE AGUAS DE LA CIUDAD DE MEXICO,PÚBLICO URBANO,VENUSTIANO CARRANZA,1996
388,1996-06-28,-99.17708333333334,19.490861111111112,780516000.0,SISTEMA DE AGUAS DE LA CIUDAD DE MEXICO,PÚBLICO URBANO,AZCAPOTZALCO,1996
389,1996-06-28,-99.1825,19.29527777777778,780516000.0,SISTEMA DE AGUAS DE LA CIUDAD DE MEXICO,PÚBLICO URBANO,TLALPAN,1996
390,1996-06-28,-99.08138888888888,19.406666666666666,780516000.0,SISTEMA DE AGUAS DE LA CIUDAD DE MEXICO,PÚBLICO URBANO,IZTACALCO,1996
391,1996-06-28,-99.13616666666667,19.44938888888889,780516000.0,SISTEMA DE AGUAS DE LA CIUDAD DE MEXICO,PÚBLICO URBANO,CUAUHTÉMOC,1996
392,1996-06-28,-99.11605555555555,19.366666666666667,780516000.0,SISTEMA DE AGUAS DE LA CIUDAD DE MEXICO,PÚBLICO URBANO,IZTAPALAPA,1996
393,1996-06-28,-99.11866666666666,19.363555555555557,780516000.0,SISTEMA DE AGUAS DE LA CIUDAD DE MEXICO,PÚBLICO URBANO,IZTAPALAPA,1996
394,1996-06-28,-99.20416666666667,19.397777777777776,780516000.0,SISTEMA DE AGUAS DE LA CIUDAD DE MEXICO,PÚBLICO URBANO,ÁLVARO OBREGÓN,1996
395,1996-06-28,-99.08055555555555,19.44527777777778,780516000.0,SISTEMA DE AGUAS DE LA CIUDAD DE MEXICO,PÚBLICO URBANO,VENUSTIANO CARRANZA,1996
396,1996-06-28,-99.23969444444444,19.34097222222222,780516000.0,SISTEMA DE AGUAS DE LA CIUDAD DE MEXICO,PÚBLICO URBANO,ÁLVARO OBREGÓN,1996
397,1996-06-28,-99.16141666666667,19.28488888888889,780516000.0,SISTEMA DE AGUAS DE LA CIUDAD DE MEXICO,PÚBLICO URBANO,TLALPAN,1996
398,1996-06-28,-99.15141666666668,19.47861111111111,780516000.0,SISTEMA DE AGUAS DE LA CIUDAD DE MEXICO,PÚBLICO URBANO,AZCAPOTZALCO,1996
399,1996-06-28,-99.1241111111111,19.367805555555556,780516000.0,SISTEMA DE AGUAS DE LA CIUDAD DE MEXICO,PÚBLICO URBANO,IZTAPALAPA,1996
400,1996-06-28,-99.12641666666666,19.360916666666668,780516000.0,SISTEMA DE AGUAS DE LA CIUDAD DE MEXICO,PÚBLICO URBANO,IZTAPALAPA,1996
401,1996-06-28,-99.16975000000001,19.3515,780516000.0,SISTEMA DE AGUAS DE LA CIUDAD DE MEXICO,PÚBLICO URBANO,COYOACÁN,1996
402,1996-06-28,-99.17705555555555,19.403305555555555,780516000.0,SISTEMA DE AGUAS DE LA CIUDAD DE MEXICO,PÚBLICO URBANO,MIGUEL HIDALGO,1996
403,1996-06-28,-99.12188888888888,19.358361111111112,780516000.0,SISTEMA DE AGUAS DE LA CIUDAD DE MEXICO,PÚBLICO URBANO,IZTAPALAPA,1996
404,1996-06-28,-99.02252777777778,19.365083333333335,780516000.0,SISTEMA DE AGUAS DE LA CIUDAD DE MEXICO,PÚBLICO URBANO,IZTAPALAPA,1996
405,1996-06-28,-99.12238888888888,19.38275,780516000.0,SISTEMA DE AGUAS DE LA CIUDAD DE MEXICO,PÚBLICO URBANO,IZTACALCO,1996
406,1996-06-28,-99.1866388888889,19.3065,780516000.0,SISTEMA DE AGUAS DE LA CIUDAD DE MEXICO,PÚBLICO URBANO,COYOACÁN,1996
407,1996-06-28,-99.18605555555555,19.30161111111111,780516000.0,SISTEMA DE AGUAS DE LA CIUDAD DE MEXICO,PÚBLICO URBANO,TLALPAN,1996
408,1996-06-28,-99.19241666666667,19.296722222222225,780516000.0,SISTEMA DE AGUAS DE LA CIUDAD DE MEXICO,PÚBLICO URBANO,TLALPAN,1996
409,1996-06-28,-99.07527777777777,19.420555555555556,780516000.0,SISTEMA DE AGUAS DE LA CIUDAD DE MEXICO,PÚBLICO URBANO,VENUSTIANO CARRANZA,1996
410,1996-06-28,-99.26419444444444,19.37627777777778,780516000.0,SISTEMA DE AGUAS DE LA CIUDAD DE MEXICO,PÚBLICO URBANO,CUAJIMALPA DE MORELOS,1996
411,1996-06-28,-99.14830555555557,19.313083333333335,780516000.0,SISTEMA DE AGUAS DE LA CIUDAD DE MEXICO,PÚBLICO URBANO,COYOACÁN,1996
412,1996-06-28,-99.06833333333333,19.415277777777778,780516000.0,SISTEMA DE AGUAS DE LA CIUDAD DE MEXICO,PÚBLICO URBANO,IZTACALCO,1996
413,1996-06-28,-99.07888888888888,19.45583333333333,780516000.0,SISTEMA DE AGUAS DE LA CIUDAD DE MEXICO,PÚBLICO URBANO,GUSTAVO A. MADERO,1996
414,1996-06-28,-99.09388888888888,19.379722222222224,780516000.0,SISTEMA DE AGUAS DE LA CIUDAD DE MEXICO,PÚBLICO URBANO,IZTAPALAPA,1996
415,1996-06-28,-99.15055555555556,19.295833333333334,780516000.0,SISTEMA DE AGUAS DE LA CIUDAD DE MEXICO,PÚBLICO URBANO,TLALPAN,1996
416,1996-06-28,-99.03222222222222,19.334722222222222,780516000.0,SISTEMA DE AGUAS DE LA CIUDAD DE MEXICO,PÚBLICO URBANO,IZTAPALAPA,1996
417,1996-06-28,-99.16630555555557,19.464972222222222,780516000.0,SISTEMA DE AGUAS DE LA CIUDAD DE MEXICO,PÚBLICO URBANO,AZCAPOTZALCO,1996
418,1996-06-28,-99.19972222222222,19.484722222222224,780516000.0,SISTEMA DE AGUAS DE LA CIUDAD DE MEXICO,PÚBLICO URBANO,AZCAPOTZALCO,1996
419,1996-06-28,-99.11130555555555,19.408583333333333,780516000.0,SISTEMA DE AGUAS DE LA CIUDAD DE MEXICO,PÚBLICO URBANO,VENUSTIANO CARRANZA,1996
420,1996-06-28,-99.16636111111112,19.285833333333336,780516000.0,SISTEMA DE AGUAS DE LA CIUDAD DE MEXICO,PÚBLICO URBANO,TLALPAN,1996
421,1996-06-28,-99.14163888888889,19.36138888888889,780516000.0,SISTEMA DE AGUAS DE LA CIUDAD DE MEXICO,PÚBLICO URBANO,BENITO JUÁREZ,1996
422,1996-06-28,-99.14250000000001,19.374583333333334,780516000.0,SISTEMA DE AGUAS DE LA CIUDAD DE MEXICO,PÚBLICO URBANO,BENITO JUÁREZ,1996
423,1996-06-28,-99.07527777777777,19.499166666666667,780516000.0,SISTEMA DE AGUAS DE LA CIUDAD DE MEXICO,PÚBLICO URBANO,GUSTAVO A. MADERO,1996
424,1996-06-28,-99.14172222222223,19.352694444444445,780516000.0,SISTEMA DE AGUAS DE LA CIUDAD DE MEXICO,PÚBLICO URBANO,COYOACÁN,1996
425,1996-06-28,-99.15861111111111,19.410277777777775,780516000.0,SISTEMA DE AGUAS DE LA CIUDAD DE MEXICO,PÚBLICO URBANO,CUAUHTÉMOC,1996
426,1996-06-28,-99.16611111111112,19.339499999999997,780516000.0,SISTEMA DE AGUAS DE LA CIUDAD DE MEXICO,PÚBLICO URBANO,COYOACÁN,1996
427,1996-06-28,-99.15472222222223,19.372444444444444,780516000.0,SISTEMA DE AGUAS DE LA CIUDAD DE MEXICO,PÚBLICO URBANO,BENITO JUÁREZ,1996
428,1996-06-28,-99.135,19.399444444444445,780516000.0,SISTEMA DE AGUAS DE LA CIUDAD DE MEXICO,PÚBLICO URBANO,BENITO JUÁREZ,1996
429,1996-06-28,-99.07344444444445,19.356361111111113,780516000.0,SISTEMA DE AGUAS DE LA CIUDAD DE MEXICO,PÚBLICO URBANO,IZTAPALAPA,1996
430,1996-06-28,-99.02944444444444,19.339194444444445,780516000.0,SISTEMA DE AGUAS DE LA CIUDAD DE MEXICO,PÚBLICO URBANO,IZTAPALAPA,1996
431,1996-06-28,-99.085,19.341305555555554,780516000.0,SISTEMA DE AGUAS DE LA CIUDAD DE MEXICO,PÚBLICO URBANO,IZTAPALAPA,1996
432,1996-06-28,-99.02186111111111,19.24886111111111,780516000.0,SISTEMA DE AGUAS DE LA CIUDAD DE MEXICO,PÚBLICO URBANO,XOCHIMILCO,1996
433,1996-06-28,-99.01872222222222,19.247,780516000.0,SISTEMA DE AGUAS DE LA CIUDAD DE MEXICO,PÚBLICO URBANO,XOCHIMILCO,1996
434,1996-06-28,-99.01025,19.246333333333336,780516000.0,SISTEMA DE AGUAS DE LA CIUDAD DE MEXICO,PÚBLICO URBANO,TLÁHUAC,1996
435,1996-06-28,-99.12544444444444,19.232,780516000.0,SISTEMA DE AGUAS DE LA CIUDAD DE MEXICO,PÚBLICO URBANO,XOCHIMILCO,1996
436,1996-06-28,-99.12947222222222,19.23761111111111,780516000.0,SISTEMA DE AGUAS DE LA CIUDAD DE MEXICO,PÚBLICO URBANO,XOCHIMILCO,1996
437,1996-06-28,-99.06833333333333,19.25175,780516000.0,SISTEMA DE AGUAS DE LA CIUDAD DE MEXICO,PÚBLICO URBANO,XOCHIMILCO,1996
438,1996-06-28,-99.04369444444444,19.249555555555556,780516000.0,SISTEMA DE AGUAS DE LA CIUDAD DE MEXICO,PÚBLICO URBANO,XOCHIMILCO,1996
439,1996-06-28,-99.18083333333334,19.278055555555554,780516000.0,SISTEMA DE AGUAS DE LA CIUDAD DE MEXICO,PÚBLICO URBANO,TLALPAN,1996
440,1996-06-28,-99.03816666666667,19.250888888888888,780516000.0,SISTEMA DE AGUAS DE LA CIUDAD DE MEXICO,PÚBLICO URBANO,XOCHIMILCO,1996
441,1996-06-28,-99.11861111111111,19.238472222222224,780516000.0,SISTEMA DE AGUAS DE LA CIUDAD DE MEXICO,PÚBLICO URBANO,XOCHIMILCO,1996
442,1996-06-28,-99.15205555555556,19.300527777777777,780516000.0,SISTEMA DE AGUAS DE LA CIUDAD DE MEXICO,PÚBLICO URBANO,COYOACÁN,1996
443,1996-06-28,-99.12355555555555,19.332305555555557,780516000.0,SISTEMA DE AGUAS DE LA CIUDAD DE MEXICO,PÚBLICO URBANO,COYOACÁN,1996
444,1996-06-28,-99.13908333333335,19.275416666666665,780516000.0,SISTEMA DE AGUAS DE LA CIUDAD DE MEXICO,PÚBLICO URBANO,XOCHIMILCO,1996
445,1996-06-28,-99.14452777777778,19.268916666666666,780516000.0,SISTEMA DE AGUAS DE LA CIUDAD DE MEXICO,PÚBLICO URBANO,XOCHIMILCO,1996
446,1996-06-28,-99.13044444444444,19.264416666666666,780516000.0,SISTEMA DE AGUAS DE LA CIUDAD DE MEXICO,PÚBLICO URBANO,XOCHIMILCO,1996
447,1996-06-28,-99.12025,19.24475,780516000.0,SISTEMA DE AGUAS DE LA CIUDAD DE MEXICO,PÚBLICO URBANO,XOCHIMILCO,1996
448,1996-06-28,-99.16066666666667,19.265027777777778,780516000.0,SISTEMA DE AGUAS DE LA CIUDAD DE MEXICO,PÚBLICO URBANO,TLALPAN,1996
449,1996-06-28,-99.23194444444445,19.28388888888889,780516000.0,SISTEMA DE AGUAS DE LA CIUDAD DE MEXICO,PÚBLICO URBANO,TLALPAN,1996
450,1996-06-28,-99.07177777777777,19.23963888888889,780516000.0,SISTEMA DE AGUAS DE LA CIUDAD DE MEXICO,PÚBLICO URBANO,XOCHIMILCO,1996
451,1996-06-28,-99.20505555555556,19.50852777777778,780516000.0,SISTEMA DE AGUAS DE LA CIUDAD DE MEXICO,PÚBLICO URBANO,AZCAPOTZALCO,1996
452,1996-06-28,-99.21013888888889,19.497333333333334,780516000.0,SISTEMA DE AGUAS DE LA CIUDAD DE MEXICO,PÚBLICO URBANO,AZCAPOTZALCO,1996
453,1996-06-28,-99.18294444444444,19.503555555555554,780516000.0,SISTEMA DE AGUAS DE LA CIUDAD DE MEXICO,PÚBLICO URBANO,AZCAPOTZALCO,1996
454,1996-06-28,-99.20755555555556,19.491777777777777,780516000.0,SISTEMA DE AGUAS DE LA CIUDAD DE MEXICO,PÚBLICO URBANO,AZCAPOTZALCO,1996
455,1996-06-28,-99.20119444444445,19.496194444444445,780516000.0,SISTEMA DE AGUAS DE LA CIUDAD DE MEXICO,PÚBLICO URBANO,AZCAPOTZALCO,1996
456,1996-06-28,-99.21686111111111,19.487055555555557,780516000.0,SISTEMA DE AGUAS DE LA CIUDAD DE MEXICO,PÚBLICO URBANO,AZCAPOTZALCO,1996
457,1996-06-28,-99.19005555555556,19.489611111111113,780516000.0,SISTEMA DE AGUAS DE LA CIUDAD DE MEXICO,PÚBLICO URBANO,AZCAPOTZALCO,1996
458,1996-06-28,-99.18333333333334,19.486944444444447,780516000.0,SISTEMA DE AGUAS DE LA CIUDAD DE MEXICO,PÚBLICO URBANO,AZCAPOTZALCO,1996
459,1996-06-28,-99.199,19.480388888888886,780516000.0,SISTEMA DE AGUAS DE LA CIUDAD DE MEXICO,PÚBLICO URBANO,AZCAPOTZALCO,1996
460,1996-06-28,-99.20958333333334,19.47647222222222,780516000.0,SISTEMA DE AGUAS DE LA CIUDAD DE MEXICO,PÚBLICO URBANO,AZCAPOTZALCO,1996
461,1996-06-28,-99.18302777777778,19.462138888888887,780516000.0,SISTEMA DE AGUAS DE LA CIUDAD DE MEXICO,PÚBLICO URBANO,AZCAPOTZALCO,1996
462,1996-06-28,-99.0786111111111,19.452777777777776,780516000.0,SISTEMA DE AGUAS DE LA CIUDAD DE MEXICO,PÚBLICO URBANO,GUSTAVO A. MADERO,1996
463,1996-06-28,-99.17330555555556,19.465055555555555,780516000.0,SISTEMA DE AGUAS DE LA CIUDAD DE MEXICO,PÚBLICO URBANO,AZCAPOTZALCO,1996
464,1996-06-28,-99.16355555555556,19.47825,780516000.0,SISTEMA DE AGUAS DE LA CIUDAD DE MEXICO,PÚBLICO URBANO,AZCAPOTZALCO,1996
465,1996-06-28,-99.15672222222223,19.473805555555554,780516000.0,SISTEMA DE AGUAS DE LA CIUDAD DE MEXICO,PÚBLICO URBANO,AZCAPOTZALCO,1996
466,1996-06-28,-99.07652777777777,19.291444444444448,780516000.0,SISTEMA DE AGUAS DE LA CIUDAD DE MEXICO,PÚBLICO URBANO,IZTAPALAPA,1996
467,1996-06-28,-99.06583333333333,19.36277777777778,780516000.0,SISTEMA DE AGUAS DE LA CIUDAD DE MEXICO,PÚBLICO URBANO,IZTAPALAPA,1996
468,1996-06-28,-99.02527777777777,19.358055555555556,780516000.0,SISTEMA DE AGUAS DE LA CIUDAD DE MEXICO,PÚBLICO URBANO,IZTAPALAPA,1996
469,1996-06-28,-99.02336111111111,19.350527777777778,780516000.0,SISTEMA DE AGUAS DE LA CIUDAD DE MEXICO,PÚBLICO URBANO,IZTAPALAPA,1996
470,1996-06-28,-99.14163888888889,19.317333333333334,780516000.0,SISTEMA DE AGUAS DE LA CIUDAD DE MEXICO,PÚBLICO URBANO,COYOACÁN,1996
471,1996-06-28,-99.06827777777778,19.24538888888889,780516000.0,SISTEMA DE AGUAS DE LA CIUDAD DE MEXICO,PÚBLICO URBANO,XOCHIMILCO,1996
472,1996-06-28,-99.1926388888889,19.39022222222222,780516000.0,SISTEMA DE AGUAS DE LA CIUDAD DE MEXICO,PÚBLICO URBANO,ÁLVARO OBREGÓN,1996
473,1996-06-28,-99.20508333333333,19.299611111111112,780516000.0,SISTEMA DE AGUAS DE LA CIUDAD DE MEXICO,PÚBLICO URBANO,TLALPAN,1996
474,1996-06-28,-99.01147222222222,19.241555555555557,780516000.0,SISTEMA DE AGUAS DE LA CIUDAD DE MEXICO,PÚBLICO URBANO,TLÁHUAC,1996
475,1996-06-28,-99.27255555555556,19.363666666666667,780516000.0,SISTEMA DE AGUAS DE LA CIUDAD DE MEXICO,PÚBLICO URBANO,CUAJIMALPA DE MORELOS,1996
476,1996-06-28,-99.12349999999999,19.34611111111111,780516000.0,SISTEMA DE AGUAS DE LA CIUDAD DE MEXICO,PÚBLICO URBANO,COYOACÁN,1996
477,1996-06-28,-99.17277777777778,19.3105,780516000.0,SISTEMA DE AGUAS DE LA CIUDAD DE MEXICO,PÚBLICO URBANO,COYOACÁN,1996
478,1996-06-28,-99.15266666666668,19.33936111111111,780516000.0,SISTEMA DE AGUAS DE LA CIUDAD DE MEXICO,PÚBLICO URBANO,COYOACÁN,1996
479,1996-06-28,-99.20744444444445,19.434305555555557,780516000.0,SISTEMA DE AGUAS DE LA CIUDAD DE MEXICO,PÚBLICO URBANO,MIGUEL HIDALGO,1996
480,1996-06-28,-99.19402777777778,19.445166666666665,780516000.0,SISTEMA DE AGUAS DE LA CIUDAD DE MEXICO,PÚBLICO URBANO,MIGUEL HIDALGO,1996
481,1996-06-28,-99.17369444444445,19.451888888888888,780516000.0,SISTEMA DE AGUAS DE LA CIUDAD DE MEXICO,PÚBLICO URBANO,MIGUEL HIDALGO,1996
482,1996-06-28,-99.17472222222223,19.34875,780516000.0,SISTEMA DE AGUAS DE LA CIUDAD DE MEXICO,PÚBLICO URBANO,MIGUEL HIDALGO,1996
483,1996-06-28,-99.15805555555556,19.316111111111113,780516000.0,SISTEMA DE AGUAS DE LA CIUDAD DE MEXICO,PÚBLICO URBANO,COYOACÁN,1996
484,1996-06-28,-99.17291666666667,19.32397222222222,780516000.0,SISTEMA DE AGUAS DE LA CIUDAD DE MEXICO,PÚBLICO URBANO,COYOACÁN,1996
485,1996-06-28,-99.16294444444445,19.307194444444445,780516000.0,SISTEMA DE AGUAS DE LA CIUDAD DE MEXICO,PÚBLICO URBANO,COYOACÁN,1996
486,1996-06-28,-99.15291666666667,19.305722222222222,780516000.0,SISTEMA DE AGUAS DE LA CIUDAD DE MEXICO,PÚBLICO URBANO,COYOACÁN,1996
487,1996-06-28,-99.15641666666667,19.328972222222223,780516000.0,SISTEMA DE AGUAS DE LA CIUDAD DE MEXICO,PÚBLICO URBANO,COYOACÁN,1996
488,1996-06-28,-99.13366666666667,19.280277777777776,780516000.0,SISTEMA DE AGUAS DE LA CIUDAD DE MEXICO,PÚBLICO URBANO,XOCHIMILCO,1996
489,1996-06-28,-99.15158333333333,19.331694444444445,780516000.0,SISTEMA DE AGUAS DE LA CIUDAD DE MEXICO,PÚBLICO URBANO,COYOACÁN,1996
490,1996-06-28,-99.05588888888889,19.241777777777777,780516000.0,SISTEMA DE AGUAS DE LA CIUDAD DE MEXICO,PÚBLICO URBANO,XOCHIMILCO,1996
491,1996-06-28,-99.05513888888889,19.244972222222223,780516000.0,SISTEMA DE AGUAS DE LA CIUDAD DE MEXICO,PÚBLICO URBANO,XOCHIMILCO,1996
492,1996-06-28,-99.05458333333333,19.236805555555556,780516000.0,SISTEMA DE AGUAS DE LA CIUDAD DE MEXICO,PÚBLICO URBANO,XOCHIMILCO,1996
493,1996-06-28,-99.0135,19.2435,780516000.0,SISTEMA DE AGUAS DE LA CIUDAD DE MEXICO,PÚBLICO URBANO,XOCHIMILCO,1996
494,1996-06-28,-99.11158333333333,19.236805555555556,780516000.0,SISTEMA DE AGUAS DE LA CIUDAD DE MEXICO,PÚBLICO URBANO,XOCHIMILCO,1996
495,1996-06-28,-99.09283333333333,19.232666666666663,780516000.0,SISTEMA DE AGUAS DE LA CIUDAD DE MEXICO,PÚBLICO URBANO,XOCHIMILCO,1996
496,1996-06-28,-99.09136111111111,19.235444444444447,780516000.0,SISTEMA DE AGUAS DE LA CIUDAD DE MEXICO,PÚBLICO URBANO,XOCHIMILCO,1996
497,1996-06-28,-99.19055555555556,19.27861111111111,780516000.0,SISTEMA DE AGUAS DE LA CIUDAD DE MEXICO,PÚBLICO URBANO,TLALPAN,1996
498,1996-06-28,-99.16086111111112,19.3545,780516000.0,SISTEMA DE AGUAS DE LA CIUDAD DE MEXICO,PÚBLICO URBANO,COYOACÁN,1996
499,1996-06-28,-99.17997222222223,19.286083333333334,780516000.0,SISTEMA DE AGUAS DE LA CIUDAD DE MEXICO,PÚBLICO URBANO,TLALPAN,1996
500,1996-06-28,-99.20952777777778,19.297416666666667,780516000.0,SISTEMA DE AGUAS DE LA CIUDAD DE MEXICO,PÚBLICO URBANO,TLALPAN,1996
501,1996-06-28,-99.22797222222222,19.307222222222222,780516000.0,SISTEMA DE AGUAS DE LA CIUDAD DE MEXICO,PÚBLICO URBANO,LA MAGDALENA CONTRERAS,1996
502,1996-06-28,-99.1563888888889,19.311944444444446,780516000.0,SISTEMA DE AGUAS DE LA CIUDAD DE MEXICO,PÚBLICO URBANO,COYOACÁN,1996
503,1996-06-28,-99.17027777777778,19.31838888888889,780516000.0,SISTEMA DE AGUAS DE LA CIUDAD DE MEXICO,PÚBLICO URBANO,COYOACÁN,1996
504,1996-06-28,-99.11294444444444,19.31341666666667,780516000.0,SISTEMA DE AGUAS DE LA CIUDAD DE MEXICO,PÚBLICO URBANO,COYOACÁN,1996
505,1996-06-28,-99.17875000000001,19.300944444444447,780516000.0,SISTEMA DE AGUAS DE LA CIUDAD DE MEXICO,PÚBLICO URBANO,TLALPAN,1996
506,1996-06-28,-99.17186111111111,19.29180555555556,780516000.0,SISTEMA DE AGUAS DE LA CIUDAD DE MEXICO,PÚBLICO URBANO,TLALPAN,1996
507,1996-06-28,-99.1538888888889,19.358055555555556,780516000.0,SISTEMA DE AGUAS DE LA CIUDAD DE MEXICO,PÚBLICO URBANO,BENITO JUÁREZ,1996
508,1996-06-28,-99.18111111111112,19.29002777777778,780516000.0,SISTEMA DE AGUAS DE LA CIUDAD DE MEXICO,PÚBLICO URBANO,TLALPAN,1996
509,1996-06-28,-99.15333333333334,19.511111111111113,780516000.0,SISTEMA DE AGUAS DE LA CIUDAD DE MEXICO,PÚBLICO URBANO,GUSTAVO A. MADERO,1996
510,1996-06-28,-99.12194444444444,19.34113888888889,780516000.0,SISTEMA DE AGUAS DE LA CIUDAD DE MEXICO,PÚBLICO URBANO,COYOACÁN,1996
511,1996-06-28,-99.08205555555556,19.330222222222222,780516000.0,SISTEMA DE AGUAS DE LA CIUDAD DE MEXICO,PÚBLICO URBANO,IZTAPALAPA,1996
512,1996-06-28,-99.08472222222221,19.30777777777778,780516000.0,SISTEMA DE AGUAS DE LA CIUDAD DE MEXICO,PÚBLICO URBANO,IZTAPALAPA,1996
513,1996-06-28,-99.11749999999999,19.42388888888889,780516000.0,SISTEMA DE AGUAS DE LA CIUDAD DE MEXICO,PÚBLICO URBANO,VENUSTIANO CARRANZA,1996
514,1996-06-28,-99.11611111111111,19.38861111111111,780516000.0,SISTEMA DE AGUAS DE LA CIUDAD DE MEXICO,PÚBLICO URBANO,IZTACALCO,1996
515,1996-06-28,-99.14111111111112,19.52861111111111,780516000.0,SISTEMA DE AGUAS DE LA CIUDAD DE MEXICO,PÚBLICO URBANO,GUSTAVO A. MADERO,1996
516,1996-06-28,-99.09638888888888,19.48222222222222,780516000.0,SISTEMA DE AGUAS DE LA CIUDAD DE MEXICO,PÚBLICO URBANO,GUSTAVO A. MADERO,1996
517,1996-06-28,-99.07527777777777,19.38722222222222,780516000.0,SISTEMA DE AGUAS DE LA CIUDAD DE MEXICO,PÚBLICO URBANO,IZTAPALAPA,1996
518,1996-06-28,-99.20805555555556,19.34361111111111,780516000.0,SISTEMA DE AGUAS DE LA CIUDAD DE MEXICO,PÚBLICO URBANO,ÁLVARO OBREGÓN,1996
519,1996-06-28,-99.0765,19.480749999999997,780516000.0,SISTEMA DE AGUAS DE LA CIUDAD DE MEXICO,PÚBLICO URBANO,GUSTAVO A. MADERO,1996
520,1996-06-28,-99.20527777777778,19.366666666666667,780516000.0,SISTEMA DE AGUAS DE LA CIUDAD DE MEXICO,PÚBLICO URBANO,ÁLVARO OBREGÓN,1996
521,1996-06-28,-99.20591666666667,19.37163888888889,780516000.0,SISTEMA DE AGUAS DE LA CIUDAD DE MEXICO,PÚBLICO URBANO,ÁLVARO OBREGÓN,1996
522,1996-06-28,-99.14527777777778,19.478055555555553,780516000.0,SISTEMA DE AGUAS DE LA CIUDAD DE MEXICO,PÚBLICO URBANO,GUSTAVO A. MADERO,1996
523,1996-06-28,-99.19944444444445,19.299444444444447,780516000.0,SISTEMA DE AGUAS DE LA CIUDAD DE MEXICO,PÚBLICO URBANO,TLALPAN,1996
524,1996-06-28,-99.12777777777777,19.264444444444443,780516000.0,SISTEMA DE AGUAS DE LA CIUDAD DE MEXICO,PÚBLICO URBANO,XOCHIMILCO,1996
525,1996-06-28,-99.12419444444444,19.25975,780516000.0,SISTEMA DE AGUAS DE LA CIUDAD DE MEXICO,PÚBLICO URBANO,XOCHIMILCO,1996
526,1996-06-28,-99.11952777777778,19.256194444444443,780516000.0,SISTEMA DE AGUAS DE LA CIUDAD DE MEXICO,PÚBLICO URBANO,XOCHIMILCO,1996
527,1996-06-28,-99.11566666666666,19.254722222222224,780516000.0,SISTEMA DE AGUAS DE LA CIUDAD DE MEXICO,PÚBLICO URBANO,XOCHIMILCO,1996
528,1996-06-28,-99.13055555555555,19.24138888888889,780516000.0,SISTEMA DE AGUAS DE LA CIUDAD DE MEXICO,PÚBLICO URBANO,XOCHIMILCO,1996
529,1996-06-28,-99.11611111111111,19.24527777777778,780516000.0,SISTEMA DE AGUAS DE LA CIUDAD DE MEXICO,PÚBLICO URBANO,XOCHIMILCO,1996
530,1996-06-28,-99.10222222222221,19.246111111111112,780516000.0,SISTEMA DE AGUAS DE LA CIUDAD DE MEXICO,PÚBLICO URBANO,XOCHIMILCO,1996
531,1996-06-28,-99.16083333333334,19.37138888888889,780516000.0,SISTEMA DE AGUAS DE LA CIUDAD DE MEXICO,PÚBLICO URBANO,BENITO JUÁREZ,1996
532,1996-06-28,-99.14361111111111,19.330833333333334,780516000.0,SISTEMA DE AGUAS DE LA CIUDAD DE MEXICO,PÚBLICO URBANO,COYOACÁN,1996
533,1996-06-28,-99.12755555555555,19.28505555555556,780516000.0,SISTEMA DE AGUAS DE LA CIUDAD DE MEXICO,PÚBLICO URBANO,TLALPAN,1996
534,1996-06-28,-99.11008333333332,19.290916666666668,780516000.0,SISTEMA DE AGUAS DE LA CIUDAD DE MEXICO,PÚBLICO URBANO,XOCHIMILCO,1996
535,1996-06-28,-99.11144444444444,19.293000000000003,780516000.0,SISTEMA DE AGUAS DE LA CIUDAD DE MEXICO,PÚBLICO URBANO,TLALPAN,1996
536,1996-06-28,-99.13175,19.319222222222223,780516000.0,SISTEMA DE AGUAS DE LA CIUDAD DE MEXICO,PÚBLICO URBANO,COYOACÁN,1996
537,1996-06-28,-99.11972222222222,19.346666666666664,780516000.0,SISTEMA DE AGUAS DE LA CIUDAD DE MEXICO,PÚBLICO URBANO,COYOACÁN,1996
538,1996-06-28,-99.10027777777778,19.30611111111111,780516000.0,SISTEMA DE AGUAS DE LA CIUDAD DE MEXICO,PÚBLICO URBANO,COYOACÁN,1996
539,1996-06-28,-99.10249999999999,19.322499999999998,780516000.0,SISTEMA DE AGUAS DE LA CIUDAD DE MEXICO,PÚBLICO URBANO,COYOACÁN,1996
540,1996-06-28,-99.10627777777778,19.326583333333332,780516000.0,SISTEMA DE AGUAS DE LA CIUDAD DE MEXICO,PÚBLICO URBANO,COYOACÁN,1996
541,1996-06-28,-99.12888888888888,19.304861111111112,780516000.0,SISTEMA DE AGUAS DE LA CIUDAD DE MEXICO,PÚBLICO URBANO,TLALPAN,1996
542,1996-06-28,-99.14272222222223,19.306722222222223,780516000.0,SISTEMA DE AGUAS DE LA CIUDAD DE MEXICO,PÚBLICO URBANO,COYOACÁN,1996
543,1996-06-28,-99.15619444444445,19.299083333333336,780516000.0,SISTEMA DE AGUAS DE LA CIUDAD DE MEXICO,PÚBLICO URBANO,COYOACÁN,1996
544,1996-06-28,-99.16088888888889,19.301666666666666,780516000.0,SISTEMA DE AGUAS DE LA CIUDAD DE MEXICO,PÚBLICO URBANO,TLALPAN,1996
545,1996-06-28,-99.15,19.28805555555556,780516000.0,SISTEMA DE AGUAS DE LA CIUDAD DE MEXICO,PÚBLICO URBANO,TLALPAN,1996
546,1996-06-28,-99.15694444444445,19.286250000000003,780516000.0,SISTEMA DE AGUAS DE LA CIUDAD DE MEXICO,PÚBLICO URBANO,TLALPAN,1996
547,1996-06-28,-99.13722222222223,19.28072222222222,780516000.0,SISTEMA DE AGUAS DE LA CIUDAD DE MEXICO,PÚBLICO URBANO,XOCHIMILCO,1996
548,1996-06-28,-99.13269444444444,19.275666666666666,780516000.0,SISTEMA DE AGUAS DE LA CIUDAD DE MEXICO,PÚBLICO URBANO,XOCHIMILCO,1996
549,1996-06-28,-99.182,19.3035,780516000.0,SISTEMA DE AGUAS DE LA CIUDAD DE MEXICO,PÚBLICO URBANO,TLALPAN,1996
550,1996-06-28,-99.22694444444444,19.299166666666668,780516000.0,SISTEMA DE AGUAS DE LA CIUDAD DE MEXICO,PÚBLICO URBANO,TLALPAN,1996
551,1996-06-28,-99.15280555555556,19.272222222222222,780516000.0,SISTEMA DE AGUAS DE LA CIUDAD DE MEXICO,PÚBLICO URBANO,TLALPAN,1996
552,1996-06-28,-99.00927777777778,19.242833333333333,780516000.0,SISTEMA DE AGUAS DE LA CIUDAD DE MEXICO,PÚBLICO URBANO,TLÁHUAC,1996
553,1996-06-28,-99.05388888888889,19.22,780516000.0,SISTEMA DE AGUAS DE LA CIUDAD DE MEXICO,PÚBLICO URBANO,MILPA ALTA,1996
554,1996-06-28,-99.00730555555556,19.20411111111111,780516000.0,SISTEMA DE AGUAS DE LA CIUDAD DE MEXICO,PÚBLICO URBANO,MILPA ALTA,1996
555,1996-06-28,-99.01025,19.196361111111113,780516000.0,SISTEMA DE AGUAS DE LA CIUDAD DE MEXICO,PÚBLICO URBANO,MILPA ALTA,1996
556,1996-06-28,-99.16008333333333,19.26897222222222,780516000.0,SISTEMA DE AGUAS DE LA CIUDAD DE MEXICO,PÚBLICO URBANO,TLALPAN,1996
557,1996-06-28,-99.00169444444444,19.197666666666667,780516000.0,SISTEMA DE AGUAS DE LA CIUDAD DE MEXICO,PÚBLICO URBANO,MILPA ALTA,1996
558,1996-06-28,-99.00402777777778,19.200972222222223,780516000.0,SISTEMA DE AGUAS DE LA CIUDAD DE MEXICO,PÚBLICO URBANO,MILPA ALTA,1996
559,1996-06-28,-99.00786111111111,19.201,780516000.0,SISTEMA DE AGUAS DE LA CIUDAD DE MEXICO,PÚBLICO URBANO,MILPA ALTA,1996
560,1996-06-28,-99.012,19.201944444444443,780516000.0,SISTEMA DE AGUAS DE LA CIUDAD DE MEXICO,PÚBLICO URBANO,MILPA ALTA,1996
561,1996-06-28,-99.00177777777778,19.20111111111111,780516000.0,SISTEMA DE AGUAS DE LA CIUDAD DE MEXICO,PÚBLICO URBANO,MILPA ALTA,1996
562,1996-06-28,-99.001,19.205861111111112,780516000.0,SISTEMA DE AGUAS DE LA CIUDAD DE MEXICO,PÚBLICO URBANO,MILPA ALTA,1996
563,1996-06-28,-99.15669444444445,19.26763888888889,780516000.0,SISTEMA DE AGUAS DE LA CIUDAD DE MEXICO,PÚBLICO URBANO,TLALPAN,1996
564,1996-06-28,-99.15400000000001,19.271,780516000.0,SISTEMA DE AGUAS DE LA CIUDAD DE MEXICO,PÚBLICO URBANO,TLALPAN,1996
565,1996-06-28,-99.15050000000001,19.273833333333332,780516000.0,SISTEMA DE AGUAS DE LA CIUDAD DE MEXICO,PÚBLICO URBANO,TLALPAN,1996
566,1996-06-28,-99.14222222222223,19.273999999999997,780516000.0,SISTEMA DE AGUAS DE LA CIUDAD DE MEXICO,PÚBLICO URBANO,TLALPAN,1996
567,1996-06-28,-99.14819444444446,19.276944444444442,780516000.0,SISTEMA DE AGUAS DE LA CIUDAD DE MEXICO,PÚBLICO URBANO,TLALPAN,1996
568,1996-06-28,-99.14916666666667,19.27111111111111,780516000.0,SISTEMA DE AGUAS DE LA CIUDAD DE MEXICO,PÚBLICO URBANO,TLALPAN,1996
569,1996-06-28,-99.10794444444444,19.241777777777777,780516000.0,SISTEMA DE AGUAS DE LA CIUDAD DE MEXICO,PÚBLICO URBANO,XOCHIMILCO,1996
570,1996-06-28,-99.14200000000001,19.269055555555553,780516000.0,SISTEMA DE AGUAS DE LA CIUDAD DE MEXICO,PÚBLICO URBANO,XOCHIMILCO,1996
571,1996-06-28,-99.0213888888889,19.25311111111111,780516000.0,SISTEMA DE AGUAS DE LA CIUDAD DE MEXICO,PÚBLICO URBANO,XOCHIMILCO,1996
572,1996-06-28,-99.01580555555556,19.247583333333335,780516000.0,SISTEMA DE AGUAS DE LA CIUDAD DE MEXICO,PÚBLICO URBANO,XOCHIMILCO,1996
573,1996-06-28,-99.12422222222222,19.236944444444447,780516000.0,SISTEMA DE AGUAS DE LA CIUDAD DE MEXICO,PÚBLICO URBANO,XOCHIMILCO,1996
574,1996-06-28,-99.13033333333333,19.23222222222222,780516000.0,SISTEMA DE AGUAS DE LA CIUDAD DE MEXICO,PÚBLICO URBANO,XOCHIMILCO,1996
575,1996-06-28,-99.09766666666667,19.235833333333336,780516000.0,SISTEMA DE AGUAS DE LA CIUDAD DE MEXICO,PÚBLICO URBANO,XOCHIMILCO,1996
576,1996-06-28,-99.09777777777778,19.22861111111111,780516000.0,SISTEMA DE AGUAS DE LA CIUDAD DE MEXICO,PÚBLICO URBANO,XOCHIMILCO,1996
577,1996-06-28,-99.07111111111111,19.24038888888889,780516000.0,SISTEMA DE AGUAS DE LA CIUDAD DE MEXICO,PÚBLICO URBANO,XOCHIMILCO,1996
578,1996-06-28,-99.11516666666667,19.242472222222222,780516000.0,SISTEMA DE AGUAS DE LA CIUDAD DE MEXICO,PÚBLICO URBANO,XOCHIMILCO,1996
579,1996-06-28,-99.13958333333333,19.26586111111111,780516000.0,SISTEMA DE AGUAS DE LA CIUDAD DE MEXICO,PÚBLICO URBANO,XOCHIMILCO,1996
580,1996-06-28,-99.07888888888888,19.294222222222224,780516000.0,SISTEMA DE AGUAS DE LA CIUDAD DE MEXICO,PÚBLICO URBANO,IZTAPALAPA,1996
581,1996-06-28,-98.99972222222222,19.282777777777778,780516000.0,SISTEMA DE AGUAS DE LA CIUDAD DE MEXICO,PÚBLICO URBANO,TLÁHUAC,1996
582,1996-06-28,-99.06602777777778,19.313694444444444,780516000.0,SISTEMA DE AGUAS DE LA CIUDAD DE MEXICO,PÚBLICO URBANO,IZTAPALAPA,1996
583,1996-06-28,-99.07275,19.31038888888889,780516000.0,SISTEMA DE AGUAS DE LA CIUDAD DE MEXICO,PÚBLICO URBANO,IZTAPALAPA,1996
584,1996-06-28,-99.06388888888888,19.32472222222222,780516000.0,SISTEMA DE AGUAS DE LA CIUDAD DE MEXICO,PÚBLICO URBANO,IZTAPALAPA,1996
585,1996-06-28,-99.00536111111111,19.30038888888889,780516000.0,SISTEMA DE AGUAS DE LA CIUDAD DE MEXICO,PÚBLICO URBANO,TLÁHUAC,1996
586,1996-06-28,-99.00916666666667,19.290277777777778,780516000.0,SISTEMA DE AGUAS DE LA CIUDAD DE MEXICO,PÚBLICO URBANO,TLÁHUAC,1996
587,1996-06-28,-99.05458333333333,19.307805555555557,780516000.0,SISTEMA DE AGUAS DE LA CIUDAD DE MEXICO,PÚBLICO URBANO,TLÁHUAC,1996
588,1996-06-28,-99.06194444444444,19.305833333333332,780516000.0,SISTEMA DE AGUAS DE LA CIUDAD DE MEXICO,PÚBLICO URBANO,IZTAPALAPA,1996
589,1996-06-28,-99.06097222222222,19.309916666666666,780516000.0,SISTEMA DE AGUAS DE LA CIUDAD DE MEXICO,PÚBLICO URBANO,IZTAPALAPA,1996
590,1996-06-28,-99.024,19.25636111111111,780516000.0,SISTEMA DE AGUAS DE LA CIUDAD DE MEXICO,PÚBLICO URBANO,XOCHIMILCO,1996
591,1996-06-28,-99.0385,19.255166666666668,780516000.0,SISTEMA DE AGUAS DE LA CIUDAD DE MEXICO,PÚBLICO URBANO,XOCHIMILCO,1996
592,1996-06-28,-99.04566666666666,19.251944444444444,780516000.0,SISTEMA DE AGUAS DE LA CIUDAD DE MEXICO,PÚBLICO URBANO,XOCHIMILCO,1996
593,1996-06-28,-99.04675,19.25363888888889,780516000.0,SISTEMA DE AGUAS DE LA CIUDAD DE MEXICO,PÚBLICO URBANO,XOCHIMILCO,1996
594,1996-06-28,-99.05041666666666,19.251277777777776,780516000.0,SISTEMA DE AGUAS DE LA CIUDAD DE MEXICO,PÚBLICO URBANO,XOCHIMILCO,1996
595,1996-06-28,-99.06238888888889,19.2535,780516000.0,SISTEMA DE AGUAS DE LA CIUDAD DE MEXICO,PÚBLICO URBANO,XOCHIMILCO,1996
596,1996-06-28,-99.06722222222221,19.25475,780516000.0,SISTEMA DE AGUAS DE LA CIUDAD DE MEXICO,PÚBLICO URBANO,XOCHIMILCO,1996
597,1996-06-28,-99.05666666666666,19.246944444444445,780516000.0,SISTEMA DE AGUAS DE LA CIUDAD DE MEXICO,PÚBLICO URBANO,XOCHIMILCO,1996
598,1996-06-28,-99.07083333333333,19.25036111111111,780516000.0,SISTEMA DE AGUAS DE LA CIUDAD DE MEXICO,PÚBLICO URBANO,XOCHIMILCO,1996
599,1996-06-28,-99.07891666666666,19.245916666666666,780516000.0,SISTEMA DE AGUAS DE LA CIUDAD DE MEXICO,PÚBLICO URBANO,XOCHIMILCO,1996
600,1996-06-28,-99.1271111111111,19.267305555555556,780516000.0,SISTEMA DE AGUAS DE LA CIUDAD DE MEXICO,PÚBLICO URBANO,XOCHIMILCO,1996
601,1996-06-28,-99.08725,19.24713888888889,780516000.0,SISTEMA DE AGUAS DE LA CIUDAD DE MEXICO,PÚBLICO URBANO,XOCHIMILCO,1996
602,1996-06-28,-99.02980555555555,19.260055555555557,780516000.0,SISTEMA DE AGUAS DE LA CIUDAD DE MEXICO,PÚBLICO URBANO,XOCHIMILCO,1996
603,1996-06-28,-99.12138888888889,19.21861111111111,780516000.0,SISTEMA DE AGUAS DE LA CIUDAD DE MEXICO,PÚBLICO URBANO,XOCHIMILCO,1996
604,1996-06-28,-99.02855555555556,19.259916666666665,780516000.0,SISTEMA DE AGUAS DE LA CIUDAD DE MEXICO,PÚBLICO URBANO,XOCHIMILCO,1996
605,1996-06-28,-99.03388888888888,19.257805555555557,780516000.0,SISTEMA DE AGUAS DE LA CIUDAD DE MEXICO,PÚBLICO URBANO,XOCHIMILCO,1996
606,1996-06-28,-99.04283333333333,19.255277777777778,780516000.0,SISTEMA DE AGUAS DE LA CIUDAD DE MEXICO,PÚBLICO URBANO,XOCHIMILCO,1996
607,1996-06-28,-99.03477777777778,19.25563888888889,780516000.0,SISTEMA DE AGUAS DE LA CIUDAD DE MEXICO,PÚBLICO URBANO,XOCHIMILCO,1996
608,1996-06-28,-98.9858611111111,19.21175,780516000.0,SISTEMA DE AGUAS DE LA CIUDAD DE MEXICO,PÚBLICO URBANO,MILPA ALTA,1996
609,1996-06-28,-98.98330555555556,19.21147222222222,780516000.0,SISTEMA DE AGUAS DE LA CIUDAD DE MEXICO,PÚBLICO URBANO,MILPA ALTA,1996
610,1996-06-28,-98.98180555555555,19.20777777777778,780516000.0,SISTEMA DE AGUAS DE LA CIUDAD DE MEXICO,PÚBLICO URBANO,MILPA ALTA,1996
611,1996-06-28,-98.98455555555556,19.209916666666665,780516000.0,SISTEMA DE AGUAS DE LA CIUDAD DE MEXICO,PÚBLICO URBANO,MILPA ALTA,1996
612,1996-06-28,-98.98130555555555,19.210583333333332,780516000.0,SISTEMA DE AGUAS DE LA CIUDAD DE MEXICO,PÚBLICO URBANO,MILPA ALTA,1996
613,1996-06-28,-98.97883333333334,19.207805555555556,780516000.0,SISTEMA DE AGUAS DE LA CIUDAD DE MEXICO,PÚBLICO URBANO,MILPA ALTA,1996
614,1996-06-28,-98.97463888888889,19.205277777777777,780516000.0,SISTEMA DE AGUAS DE LA CIUDAD DE MEXICO,PÚBLICO URBANO,TLÁHUAC,1996
615,1996-06-28,-99.00527777777778,19.248055555555556,780516000.0,SISTEMA DE AGUAS DE LA CIUDAD DE MEXICO,PÚBLICO URBANO,TLÁHUAC,1996
616,1996-06-28,-98.9713888888889,19.211111111111112,780516000.0,SISTEMA DE AGUAS DE LA CIUDAD DE MEXICO,PÚBLICO URBANO,TLÁHUAC,1996
617,1996-06-28,-99.06,19.375,780516000.0,SISTEMA DE AGUAS DE LA CIUDAD DE MEXICO,PÚBLICO URBANO,IZTAPALAPA,1996
618,1996-06-28,-98.96694444444445,19.20861111111111,780516000.0,SISTEMA DE AGUAS DE LA CIUDAD DE MEXICO,PÚBLICO URBANO,TLÁHUAC,1996
619,1996-06-28,-98.99397222222223,19.227416666666667,780516000.0,SISTEMA DE AGUAS DE LA CIUDAD DE MEXICO,PÚBLICO URBANO,MILPA ALTA,1996
620,1996-06-28,-98.99302777777778,19.222527777777778,780516000.0,SISTEMA DE AGUAS DE LA CIUDAD DE MEXICO,PÚBLICO URBANO,MILPA ALTA,1996
621,1996-06-28,-99.04777777777778,19.278055555555554,780516000.0,SISTEMA DE AGUAS DE LA CIUDAD DE MEXICO,PÚBLICO URBANO,TLÁHUAC,1996
622,1996-06-28,-99.03944444444444,19.273055555555555,780516000.0,SISTEMA DE AGUAS DE LA CIUDAD DE MEXICO,PÚBLICO URBANO,TLÁHUAC,1996
623,1996-06-28,-99.01444444444445,19.354444444444447,780516000.0,SISTEMA DE AGUAS DE LA CIUDAD DE MEXICO,PÚBLICO URBANO,TLÁHUAC,1996
624,1996-06-28,-98.99916666666667,19.28666666666667,780516000.0,SISTEMA DE AGUAS DE LA CIUDAD DE MEXICO,PÚBLICO URBANO,TLÁHUAC,1996
625,1996-06-28,-99.05027777777778,19.284444444444446,780516000.0,SISTEMA DE AGUAS DE LA CIUDAD DE MEXICO,PÚBLICO URBANO,TLÁHUAC,1996
626,1996-06-28,-99.00736111111111,19.29602777777778,780516000.0,SISTEMA DE AGUAS DE LA CIUDAD DE MEXICO,PÚBLICO URBANO,TLÁHUAC,1996
627,1996-06-28,-99.13441666666667,19.55063888888889,780516000.0,SISTEMA DE AGUAS DE LA CIUDAD DE MEXICO,PÚBLICO URBANO,GUSTAVO A. MADERO,1996
628,1996-06-28,-99.13441666666667,19.55063888888889,780516000.0,SISTEMA DE AGUAS DE LA CIUDAD DE MEXICO,PÚBLICO URBANO,GUSTAVO A. MADERO,1996
629,1996-06-28,-99.13441666666667,19.55063888888889,780516000.0,SISTEMA DE AGUAS DE LA CIUDAD DE MEXICO,PÚBLICO URBANO,GUSTAVO A. MADERO,1996
630,1996-06-28,-99.11722222222221,19.4165,780516000.0,SISTEMA DE AGUAS DE LA CIUDAD DE MEXICO,PÚBLICO URBANO,VENUSTIANO CARRANZA,1996
631,1996-06-28,-99.13897222222222,19.29813888888889,780516000.0,SISTEMA DE AGUAS DE LA CIUDAD DE MEXICO,PÚBLICO URBANO,TLALPAN,1996
632,1996-06-28,-99.13416666666667,19.2965,780516000.0,SISTEMA DE AGUAS DE LA CIUDAD DE MEXICO,PÚBLICO URBANO,TLALPAN,1996
633,1996-06-28,-99.18661111111112,19.29563888888889,780516000.0,SISTEMA DE AGUAS DE LA CIUDAD DE MEXICO,PÚBLICO URBANO,TLALPAN,1996
634,1996-06-28,-99.21411111111111,19.331972222222223,780516000.0,SISTEMA DE AGUAS DE LA CIUDAD DE MEXICO,PÚBLICO URBANO,LA MAGDALENA CONTRERAS,1996
635,1996-06-28,-99.16316666666667,19.489166666666666,780516000.0,SISTEMA DE AGUAS DE LA CIUDAD DE MEXICO,PÚBLICO URBANO,AZCAPOTZALCO,1996
636,1996-06-28,-99.15322222222223,19.491333333333333,780516000.0,SISTEMA DE AGUAS DE LA CIUDAD DE MEXICO,PÚBLICO URBANO,AZCAPOTZALCO,1996
637,1996-06-28,-99.18416666666667,19.486944444444447,780516000.0,SISTEMA DE AGUAS DE LA CIUDAD DE MEXICO,PÚBLICO URBANO,AZCAPOTZALCO,1996
638,1996-06-28,-99.04869444444444,19.361722222222223,780516000.0,SISTEMA DE AGUAS DE LA CIUDAD DE MEXICO,PÚBLICO URBANO,IZTAPALAPA,1996
639,1996-06-28,-99.10674999999999,19.333666666666666,780516000.0,SISTEMA DE AGUAS DE LA CIUDAD DE MEXICO,PÚBLICO URBANO,IZTAPALAPA,1996
640,1996-06-28,-99.22708333333334,19.405027777777775,780516000.0,SISTEMA DE AGUAS DE LA CIUDAD DE MEXICO,PÚBLICO URBANO,MIGUEL HIDALGO,1996
641,1996-06-28,-99.15808333333334,19.27847222222222,780516000.0,SISTEMA DE AGUAS DE LA CIUDAD DE MEXICO,PÚBLICO URBANO,TLALPAN,1996
642,1996-06-28,-99.1511388888889,19.283972222222225,780516000.0,SISTEMA DE AGUAS DE LA CIUDAD DE MEXICO,PÚBLICO URBANO,TLALPAN,1996
643,1996-06-28,-99.15636111111111,19.28427777777778,780516000.0,SISTEMA DE AGUAS DE LA CIUDAD DE MEXICO,PÚBLICO URBANO,TLALPAN,1996
644,1996-06-28,-99.15558333333334,19.28033333333333,780516000.0,SISTEMA DE AGUAS DE LA CIUDAD DE MEXICO,PÚBLICO URBANO,TLALPAN,1996
645,1996-06-28,-99.21761111111111,19.333888888888886,780516000.0,SISTEMA DE AGUAS DE LA CIUDAD DE MEXICO,PÚBLICO URBANO,LA MAGDALENA CONTRERAS,1996
646,1996-06-28,-99.17208333333333,19.302777777777777,780516000.0,SISTEMA DE AGUAS DE LA CIUDAD DE MEXICO,PÚBLICO URBANO,COYOACÁN,1996
647,1996-06-28,-99.09702777777777,19.322194444444445,780516000.0,SISTEMA DE AGUAS DE LA CIUDAD DE MEXICO,PÚBLICO URBANO,IZTAPALAPA,1996
648,1996-06-28,-99.0381111111111,19.34638888888889,780516000.0,SISTEMA DE AGUAS DE LA CIUDAD DE MEXICO,PÚBLICO URBANO,IZTAPALAPA,1996
649,1996-06-28,-99.20727777777778,19.331944444444446,780516000.0,SISTEMA DE AGUAS DE LA CIUDAD DE MEXICO,PÚBLICO URBANO,ÁLVARO OBREGÓN,1996
650,1996-06-28,-99.12380555555555,19.337138888888887,780516000.0,SISTEMA DE AGUAS DE LA CIUDAD DE MEXICO,PÚBLICO URBANO,COYOACÁN,1996
651,1996-06-28,-99.02777777777777,19.385833333333334,780516000.0,SISTEMA DE AGUAS DE LA CIUDAD DE MEXICO,PÚBLICO URBANO,IZTAPALAPA,1996
652,1996-06-28,-99.07413888888888,19.289,780516000.0,SISTEMA DE AGUAS DE LA CIUDAD DE MEXICO,PÚBLICO URBANO,IZTAPALAPA,1996
653,1996-06-28,-99.08602777777777,19.303,780516000.0,SISTEMA DE AGUAS DE LA CIUDAD DE MEXICO,PÚBLICO URBANO,IZTAPALAPA,1996
654,1996-06-28,-99.10113888888888,19.295333333333335,780516000.0,SISTEMA DE AGUAS DE LA CIUDAD DE MEXICO,PÚBLICO URBANO,TLALPAN,1996
655,1996-06-28,-99.10527777777777,19.293694444444448,780516000.0,SISTEMA DE AGUAS DE LA CIUDAD DE MEXICO,PÚBLICO URBANO,TLALPAN,1996
656,1996-06-28,-99.112,19.290861111111113,780516000.0,SISTEMA DE AGUAS DE LA CIUDAD DE MEXICO,PÚBLICO URBANO,TLALPAN,1996
657,1996-06-28,-99.09955555555555,19.315527777777778,780516000.0,SISTEMA DE AGUAS DE LA CIUDAD DE MEXICO,PÚBLICO URBANO,COYOACÁN,1996
658,1996-06-28,-99.11527777777778,19.289694444444446,780516000.0,SISTEMA DE AGUAS DE LA CIUDAD DE MEXICO,PÚBLICO URBANO,TLALPAN,1996
659,1996-06-28,-99.11949999999999,19.287833333333335,780516000.0,SISTEMA DE AGUAS DE LA CIUDAD DE MEXICO,PÚBLICO URBANO,TLALPAN,1996
660,1996-06-28,-99.12872222222222,19.284333333333336,780516000.0,SISTEMA DE AGUAS DE LA CIUDAD DE MEXICO,PÚBLICO URBANO,TLALPAN,1996
661,1996-06-28,-99.13391666666668,19.282777777777778,780516000.0,SISTEMA DE AGUAS DE LA CIUDAD DE MEXICO,PÚBLICO URBANO,TLALPAN,1996
662,1996-06-28,-99.14311111111111,19.283333333333335,780516000.0,SISTEMA DE AGUAS DE LA CIUDAD DE MEXICO,PÚBLICO URBANO,TLALPAN,1996
663,1996-06-28,-98.99316666666667,19.18788888888889,780516000.0,SISTEMA DE AGUAS DE LA CIUDAD DE MEXICO,PÚBLICO URBANO,MILPA ALTA,1996
664,1996-06-28,-99.13547222222223,19.291444444444448,780516000.0,SISTEMA DE AGUAS DE LA CIUDAD DE MEXICO,PÚBLICO URBANO,TLALPAN,1996
665,1996-06-28,-99.04897222222222,19.211944444444445,780516000.0,SISTEMA DE AGUAS DE LA CIUDAD DE MEXICO,PÚBLICO URBANO,MILPA ALTA,1996
666,1996-06-28,-99.21686111111111,19.331166666666668,780516000.0,SISTEMA DE AGUAS DE LA CIUDAD DE MEXICO,PÚBLICO URBANO,LA MAGDALENA CONTRERAS,1996
667,1996-06-28,-99.12672222222221,19.400666666666666,780516000.0,SISTEMA DE AGUAS DE LA CIUDAD DE MEXICO,PÚBLICO URBANO,IZTACALCO,1996
668,1996-06-28,-99.20572222222222,19.388777777777776,780516000.0,SISTEMA DE AGUAS DE LA CIUDAD DE MEXICO,PÚBLICO URBANO,ÁLVARO OBREGÓN,1996
669,1996-06-28,-99.21394444444445,19.36863888888889,780516000.0,SISTEMA DE AGUAS DE LA CIUDAD DE MEXICO,PÚBLICO URBANO,ÁLVARO OBREGÓN,1996
670,1996-06-28,-99.02361111111111,19.3505,780516000.0,SISTEMA DE AGUAS DE LA CIUDAD DE MEXICO,PÚBLICO URBANO,IZTAPALAPA,1996
671,1996-06-28,-99.20669444444445,19.496000000000002,780516000.0,SISTEMA DE AGUAS DE LA CIUDAD DE MEXICO,PÚBLICO URBANO,AZCAPOTZALCO,1996
672,1996-06-28,-99.13297222222222,19.327305555555554,780516000.0,SISTEMA DE AGUAS DE LA CIUDAD DE MEXICO,PÚBLICO URBANO,COYOACÁN,1996
673,1996-06-28,-99.13102777777777,19.325944444444445,780516000.0,SISTEMA DE AGUAS DE LA CIUDAD DE MEXICO,PÚBLICO URBANO,COYOACÁN,1996
674,1996-06-28,-99.12672222222221,19.325694444444444,780516000.0,SISTEMA DE AGUAS DE LA CIUDAD DE MEXICO,PÚBLICO URBANO,COYOACÁN,1996
675,1996-06-28,-99.12719444444444,19.32311111111111,780516000.0,SISTEMA DE AGUAS DE LA CIUDAD DE MEXICO,PÚBLICO URBANO,COYOACÁN,1996
676,1996-06-28,-99.09299999999999,19.41522222222222,780516000.0,SISTEMA DE AGUAS DE LA CIUDAD DE MEXICO,PÚBLICO URBANO,IZTAPALAPA,1996
677,1996-06-28,-99.14694444444446,19.449944444444444,780516000.0,SISTEMA DE AGUAS DE LA CIUDAD DE MEXICO,PÚBLICO URBANO,CUAUHTÉMOC,1996
678,1996-06-28,-99.16827777777779,19.483666666666668,780516000.0,SISTEMA DE AGUAS DE LA CIUDAD DE MEXICO,PÚBLICO URBANO,AZCAPOTZALCO,1996
679,1996-06-28,-99.21911111111112,19.447083333333335,780516000.0,SISTEMA DE AGUAS DE LA CIUDAD DE MEXICO,PÚBLICO URBANO,MIGUEL HIDALGO,1996
680,1996-06-28,-99.1466388888889,19.363583333333334,780516000.0,SISTEMA DE AGUAS DE LA CIUDAD DE MEXICO,PÚBLICO URBANO,BENITO JUÁREZ,1996
681,1996-06-28,-98.98658333333333,19.34669444444444,780516000.0,SISTEMA DE AGUAS DE LA CIUDAD DE MEXICO,PÚBLICO URBANO,IZTAPALAPA,1996
682,1996-06-28,-99.01786111111112,19.345777777777776,780516000.0,SISTEMA DE AGUAS DE LA CIUDAD DE MEXICO,PÚBLICO URBANO,IZTAPALAPA,1996
683,1996-06-28,-99.14230555555557,19.39788888888889,780516000.0,SISTEMA DE AGUAS DE LA CIUDAD DE MEXICO,PÚBLICO URBANO,BENITO JUÁREZ,1996
684,1996-06-28,-99.17777777777778,19.446944444444444,780516000.0,SISTEMA DE AGUAS DE LA CIUDAD DE MEXICO,PÚBLICO URBANO,MIGUEL HIDALGO,1996
685,1996-06-28,-99.20830555555555,19.45288888888889,780516000.0,SISTEMA DE AGUAS DE LA CIUDAD DE MEXICO,PÚBLICO URBANO,MIGUEL HIDALGO,1996
686,1996-06-28,-99.14027777777778,19.37038888888889,780516000.0,SISTEMA DE AGUAS DE LA CIUDAD DE MEXICO,PÚBLICO URBANO,BENITO JUÁREZ,1996
687,1996-06-28,-99.06872222222222,19.33536111111111,780516000.0,SISTEMA DE AGUAS DE LA CIUDAD DE MEXICO,PÚBLICO URBANO,IZTAPALAPA,1996
688,1996-06-28,-99.18827777777778,19.45883333333333,780516000.0,SISTEMA DE AGUAS DE LA CIUDAD DE MEXICO,PÚBLICO URBANO,MIGUEL HIDALGO,1996
689,1996-06-28,-99.21325,19.394944444444445,780516000.0,SISTEMA DE AGUAS DE LA CIUDAD DE MEXICO,PÚBLICO URBANO,ÁLVARO OBREGÓN,1996
690,1996-06-28,-99.20166666666667,19.341083333333334,780516000.0,SISTEMA DE AGUAS DE LA CIUDAD DE MEXICO,PÚBLICO URBANO,ÁLVARO OBREGÓN,1996
691,1996-06-28,-99.07974999999999,19.338166666666666,780516000.0,SISTEMA DE AGUAS DE LA CIUDAD DE MEXICO,PÚBLICO URBANO,IZTAPALAPA,1996
692,1996-06-28,-99.12247222222221,19.374055555555557,780516000.0,SISTEMA DE AGUAS DE LA CIUDAD DE MEXICO,PÚBLICO URBANO,IZTAPALAPA,1996
693,1996-06-28,-99.20997222222222,19.34047222222222,780516000.0,SISTEMA DE AGUAS DE LA CIUDAD DE MEXICO,PÚBLICO URBANO,ÁLVARO OBREGÓN,1996
694,1996-06-28,-99.20111111111112,19.390666666666664,780516000.0,SISTEMA DE AGUAS DE LA CIUDAD DE MEXICO,PÚBLICO URBANO,ÁLVARO OBREGÓN,1996
695,1996-06-28,-99.00888888888889,19.341555555555555,780516000.0,SISTEMA DE AGUAS DE LA CIUDAD DE MEXICO,PÚBLICO URBANO,IZTAPALAPA,1996
696,1996-06-28,-99.155,19.420944444444444,780516000.0,SISTEMA DE AGUAS DE LA CIUDAD DE MEXICO,PÚBLICO URBANO,CUAUHTÉMOC,1996
697,1996-06-28,-99.16280555555556,19.378555555555558,780516000.0,SISTEMA DE AGUAS DE LA CIUDAD DE MEXICO,PÚBLICO URBANO,BENITO JUÁREZ,1996
698,1996-06-28,-99.12280555555554,19.454027777777778,780516000.0,SISTEMA DE AGUAS DE LA CIUDAD DE MEXICO,PÚBLICO URBANO,VENUSTIANO CARRANZA,1996
699,1996-06-28,-99.011,19.351166666666668,780516000.0,SISTEMA DE AGUAS DE LA CIUDAD DE MEXICO,PÚBLICO URBANO,IZTAPALAPA,1996
700,1996-06-28,-99.18219444444445,19.348388888888888,780516000.0,SISTEMA DE AGUAS DE LA CIUDAD DE MEXICO,PÚBLICO URBANO,ÁLVARO OBREGÓN,1996
701,1996-06-28,-99.10255555555555,19.23888888888889,780516000.0,SISTEMA DE AGUAS DE LA CIUDAD DE MEXICO,PÚBLICO URBANO,XOCHIMILCO,1996
702,1996-06-28,-99.13074999999999,19.30825,780516000.0,SISTEMA DE AGUAS DE LA CIUDAD DE MEXICO,PÚBLICO URBANO,XOCHIMILCO,1996
703,1996-06-28,-99.09416666666667,19.242166666666666,780516000.0,SISTEMA DE AGUAS DE LA CIUDAD DE MEXICO,PÚBLICO URBANO,XOCHIMILCO,1996
704,1996-06-28,-99.21141666666666,19.361305555555557,780516000.0,SISTEMA DE AGUAS DE LA CIUDAD DE MEXICO,PÚBLICO URBANO,ÁLVARO OBREGÓN,1996
705,1996-06-28,-99.18166666666667,19.407027777777778,780516000.0,SISTEMA DE AGUAS DE LA CIUDAD DE MEXICO,PÚBLICO URBANO,MIGUEL HIDALGO,1996
706,1996-06-28,-99.13622222222223,19.37388888888889,780516000.0,SISTEMA DE AGUAS DE LA CIUDAD DE MEXICO,PÚBLICO URBANO,BENITO JUÁREZ,1996
707,1996-06-28,-99.20072222222223,19.428361111111112,780516000.0,SISTEMA DE AGUAS DE LA CIUDAD DE MEXICO,PÚBLICO URBANO,MIGUEL HIDALGO,1996
708,1996-06-28,-99.18991666666668,19.406444444444443,780516000.0,SISTEMA DE AGUAS DE LA CIUDAD DE MEXICO,PÚBLICO URBANO,MIGUEL HIDALGO,1996
709,1996-06-28,-99.20525,19.367194444444443,780516000.0,SISTEMA DE AGUAS DE LA CIUDAD DE MEXICO,PÚBLICO URBANO,ÁLVARO OBREGÓN,1996
710,1996-06-28,-99.09197222222221,19.32636111111111,780516000.0,SISTEMA DE AGUAS DE LA CIUDAD DE MEXICO,PÚBLICO URBANO,IZTAPALAPA,1996
711,1996-06-28,-99.17027777777778,19.46875,780516000.0,SISTEMA DE AGUAS DE LA CIUDAD DE MEXICO,PÚBLICO URBANO,AZCAPOTZALCO,1996
712,1996-06-28,-99.19902777777779,19.33386111111111,780516000.0,SISTEMA DE AGUAS DE LA CIUDAD DE MEXICO,PÚBLICO URBANO,ÁLVARO OBREGÓN,1996
713,1996-06-28,-99.19680555555556,19.31972222222222,780516000.0,SISTEMA DE AGUAS DE LA CIUDAD DE MEXICO,PÚBLICO URBANO,ÁLVARO OBREGÓN,1996
714,1996-06-28,-99.21752777777778,19.311777777777777,780516000.0,SISTEMA DE AGUAS DE LA CIUDAD DE MEXICO,PÚBLICO URBANO,ÁLVARO OBREGÓN,1996
715,1996-06-28,-99.20402777777778,19.44986111111111,780516000.0,SISTEMA DE AGUAS DE LA CIUDAD DE MEXICO,PÚBLICO URBANO,MIGUEL HIDALGO,1996
716,1996-06-28,-99.2196388888889,19.428472222222222,780516000.0,SISTEMA DE AGUAS DE LA CIUDAD DE MEXICO,PÚBLICO URBANO,MIGUEL HIDALGO,1996
717,1996-06-28,-99.18900000000001,19.456138888888887,780516000.0,SISTEMA DE AGUAS DE LA CIUDAD DE MEXICO,PÚBLICO URBANO,MIGUEL HIDALGO,1996
718,1996-06-28,-99.19908333333333,19.365083333333335,780516000.0,SISTEMA DE AGUAS DE LA CIUDAD DE MEXICO,PÚBLICO URBANO,ÁLVARO OBREGÓN,1996
719,1996-06-28,-99.07161111111111,19.384722222222223,780516000.0,SISTEMA DE AGUAS DE LA CIUDAD DE MEXICO,PÚBLICO URBANO,IZTAPALAPA,1996
720,1996-06-28,-99.14233333333334,19.390055555555556,780516000.0,SISTEMA DE AGUAS DE LA CIUDAD DE MEXICO,PÚBLICO URBANO,BENITO JUÁREZ,1996
721,1996-06-28,-99.15844444444446,19.293444444444447,780516000.0,SISTEMA DE AGUAS DE LA CIUDAD DE MEXICO,PÚBLICO URBANO,TLALPAN,1996
722,1996-06-28,-99.15222222222222,19.326444444444444,780516000.0,SISTEMA DE AGUAS DE LA CIUDAD DE MEXICO,PÚBLICO URBANO,COYOACÁN,1996
723,1996-06-28,-99.14355555555557,19.390083333333333,780516000.0,SISTEMA DE AGUAS DE LA CIUDAD DE MEXICO,PÚBLICO URBANO,BENITO JUÁREZ,1996
724,1996-06-28,-99.17244444444445,19.370194444444444,780516000.0,SISTEMA DE AGUAS DE LA CIUDAD DE MEXICO,PÚBLICO URBANO,BENITO JUÁREZ,1996
725,1996-06-28,-99.11444444444444,19.301055555555557,780516000.0,SISTEMA DE AGUAS DE LA CIUDAD DE MEXICO,PÚBLICO URBANO,COYOACÁN,1996
726,1996-06-28,-99.13416666666667,19.31277777777778,780516000.0,SISTEMA DE AGUAS DE LA CIUDAD DE MEXICO,PÚBLICO URBANO,COYOACÁN,1996
727,1996-06-28,-99.1433888888889,19.276249999999997,780516000.0,SISTEMA DE AGUAS DE LA CIUDAD DE MEXICO,PÚBLICO URBANO,TLALPAN,1996
728,1996-06-28,-99.00525,19.242527777777777,780516000.0,SISTEMA DE AGUAS DE LA CIUDAD DE MEXICO,PÚBLICO URBANO,TLÁHUAC,1996
729,1996-06-28,-99.01422222222222,19.252388888888888,780516000.0,SISTEMA DE AGUAS DE LA CIUDAD DE MEXICO,PÚBLICO URBANO,XOCHIMILCO,1996
730,1996-06-28,-99.09913888888889,19.319805555555554,780516000.0,SISTEMA DE AGUAS DE LA CIUDAD DE MEXICO,PÚBLICO URBANO,COYOACÁN,1996
731,1996-06-28,-99.09663888888889,19.31613888888889,780516000.0,SISTEMA DE AGUAS DE LA CIUDAD DE MEXICO,PÚBLICO URBANO,IZTAPALAPA,1996
732,1996-06-28,-99.035,19.250944444444446,780516000.0,SISTEMA DE AGUAS DE LA CIUDAD DE MEXICO,PÚBLICO URBANO,XOCHIMILCO,1996
733,1996-06-28,-99.10577777777777,19.237194444444444,780516000.0,SISTEMA DE AGUAS DE LA CIUDAD DE MEXICO,PÚBLICO URBANO,XOCHIMILCO,1996
734,1996-06-28,-99.19983333333333,19.375222222222224,780516000.0,SISTEMA DE AGUAS DE LA CIUDAD DE MEXICO,PÚBLICO URBANO,ÁLVARO OBREGÓN,1996
735,1996-06-28,-99.06572222222222,19.32011111111111,780516000.0,SISTEMA DE AGUAS DE LA CIUDAD DE MEXICO,PÚBLICO URBANO,IZTAPALAPA,1996
736,1996-06-28,-99.04013888888889,19.283833333333334,780516000.0,SISTEMA DE AGUAS DE LA CIUDAD DE MEXICO,PÚBLICO URBANO,TLÁHUAC,1996
737,1996-06-28,-99.0265,19.302611111111112,780516000.0,SISTEMA DE AGUAS DE LA CIUDAD DE MEXICO,PÚBLICO URBANO,TLÁHUAC,1996
738,1996-06-28,-99.06997222222222,19.25161111111111,780516000.0,SISTEMA DE AGUAS DE LA CIUDAD DE MEXICO,PÚBLICO URBANO,XOCHIMILCO,1996
739,1996-06-28,-99.02752777777778,19.260472222222223,780516000.0,SISTEMA DE AGUAS DE LA CIUDAD DE MEXICO,PÚBLICO URBANO,XOCHIMILCO,1996
740,1996-06-28,-98.99733333333333,19.23258333333333,780516000.0,SISTEMA DE AGUAS DE LA CIUDAD DE MEXICO,PÚBLICO URBANO,TLÁHUAC,1996
741,1996-06-28,-98.97644444444444,19.20863888888889,780516000.0,SISTEMA DE AGUAS DE LA CIUDAD DE MEXICO,PÚBLICO URBANO,MILPA ALTA,1996
742,1996-06-28,-98.96947222222222,19.209527777777776,780516000.0,SISTEMA DE AGUAS DE LA CIUDAD DE MEXICO,PÚBLICO URBANO,TLÁHUAC,1996
743,1996-06-28,-98.96722222222222,19.206777777777777,780516000.0,SISTEMA DE AGUAS DE LA CIUDAD DE MEXICO,PÚBLICO URBANO,TLÁHUAC,1996
744,1996-06-28,-98.99791666666667,19.20947222222222,780516000.0,SISTEMA DE AGUAS DE LA CIUDAD DE MEXICO,PÚBLICO URBANO,MILPA ALTA,1996
745,1996-06-28,-99.09125,19.390333333333334,780516000.0,SISTEMA DE AGUAS DE LA CIUDAD DE MEXICO,PÚBLICO URBANO,IZTACALCO,1996
746,1996-06-28,-99.08477777777777,19.378972222222224,780516000.0,SISTEMA DE AGUAS DE LA CIUDAD DE MEXICO,PÚBLICO URBANO,IZTAPALAPA,1996
747,1996-06-28,-99.08222222222221,19.296111111111113,780516000.0,SISTEMA DE AGUAS DE LA CIUDAD DE MEXICO,PÚBLICO URBANO,XOCHIMILCO,1996
748,2009-10-30,-99.28055555555555,19.35527777777778,115000.0,"THE AMERICAN BRITISH COWDRAY MEDICAL CENTER, I. A. P.",INDUSTRIAL,CUAJIMALPA DE MORELOS,2009
749,1997-09-03,-99.12777777777777,19.41916666666667,293760.0,"INDUSTRIA EMBOTELLADORA DE MEXICO, S.A. DE C.V.",INDUSTRIAL,CUAUHTÉMOC,1997
750,2017-11-20,-99.17916666666667,19.44,490000.0,ALQUILADORA DE CASAS S.A. DE C.V.,INDUSTRIAL,MIGUEL HIDALGO,2017
751,2017-11-20,-99.17916666666667,19.439166666666665,490000.0,ALQUILADORA DE CASAS S.A. DE C.V.,INDUSTRIAL,MIGUEL HIDALGO,2017
752,2019-02-20,-99.19669444444445,19.502944444444445,11396.0,"TAPON CORONA, S. A. DE C. V.",INDUSTRIAL,AZCAPOTZALCO,2019
753,2018-11-28,-99.15333333333334,19.43277777777778,720000.0,"CIBANCO, S.A.,I.B.M., FIDUCIARIO EN EL FIDEICOMISO CIB/2032",SERVICIOS,CUAUHTÉMOC,2018
754,2018-11-28,-99.15166666666667,19.43166666666667,720000.0,"CIBANCO, S.A.,I.B.M., FIDUCIARIO EN EL FIDEICOMISO CIB/2032",SERVICIOS,CUAUHTÉMOC,2018
